,id,longitude,latitude,altitude,province,city,district
0,50136,122.51,52.97,438.0,黑龙江省,大兴安岭地区,漠河县
1,50137,122.38,53.47,296.0,黑龙江省,大兴安岭地区,漠河县
2,50246,124.72,52.35,361.0,黑龙江省,大兴安岭地区,塔河县
3,50247,123.57,52.04,514.0,黑龙江省,大兴安岭地区,呼玛县
4,50349,124.39,51.67,501.0,黑龙江省,大兴安岭地区,呼玛县
5,50353,126.64,51.73,173.0,黑龙江省,大兴安岭地区,呼玛县
6,50425,120.18,50.25,581.0,内蒙古自治区,呼伦贝尔市,额尔古纳市
7,50431,121.52,50.78,717.0,内蒙古自治区,呼伦贝尔市,根河市
8,50434,121.68,50.48,732.0,内蒙古自治区,呼伦贝尔市,牙克石市
9,50442,124.12,50.41,371.0,内蒙古自治区,呼伦贝尔市,鄂伦春自治旗
10,50445,123.73,50.58,423.0,内蒙古自治区,呼伦贝尔市,鄂伦春自治旗
11,50468,127.46,50.25,166.0,黑龙江省,黑河市,爱辉区
12,50514,117.32,49.58,661.0,内蒙古自治区,呼伦贝尔市,满洲里市
13,50524,119.46,49.34,597.0,内蒙古自治区,呼伦贝尔市,陈巴尔虎旗
14,50525,119.75,49.15,620.0,内蒙古自治区,呼伦贝尔市,鄂温克族自治旗
15,50526,120.7,49.28,668.0,内蒙古自治区,呼伦贝尔市,牙克石市
16,50527,119.7,49.25,649.0,内蒙古自治区,呼伦贝尔市,海拉尔区
17,50548,123.72,49.2,286.0,内蒙古自治区,呼伦贝尔市,鄂伦春自治旗
18,50557,125.23,49.16,242.0,黑龙江省,黑河市,嫩江县
19,50564,127.33,49.42,234.0,黑龙江省,黑河市,孙吴县
20,50566,128.48,49.57,116.0,黑龙江省,黑河市,逊克县
21,50603,116.81,48.68,542.0,内蒙古自治区,呼伦贝尔市,新巴尔虎右旗
22,50618,118.27,48.22,642.0,内蒙古自治区,呼伦贝尔市,新巴尔虎左旗
23,50632,121.92,48.77,739.0,内蒙古自治区,呼伦贝尔市,牙克石市
24,50639,122.73,48.0,306.0,内蒙古自治区,呼伦贝尔市,扎兰屯市
25,50645,124.48,48.48,198.0,内蒙古自治区,呼伦贝尔市,莫力达瓦达斡尔族自治旗
26,50646,124.88,48.5,230.0,黑龙江省,齐齐哈尔市,讷河市
27,50647,123.48,48.13,236.0,内蒙古自治区,呼伦贝尔市,阿荣旗
28,50655,126.19,48.5,266.0,黑龙江省,黑河市,五大连池市
29,50656,126.51,48.26,278.0,黑龙江省,黑河市,北安市
30,50658,125.79,48.08,291.0,黑龙江省,齐齐哈尔市,克山县
31,50659,126.24,48.05,297.0,黑龙江省,齐齐哈尔市,克东县
32,50673,130.42,48.9,90.0,黑龙江省,伊春市,嘉荫县
33,50674,129.43,48.57,404.0,黑龙江省,伊春市,乌伊岭区
34,50727,119.93,47.17,997.0,内蒙古自治区,兴安盟,阿尔山市
35,50739,123.24,47.3,209.0,黑龙江省,齐齐哈尔市,龙江县
36,50741,123.5,47.93,185.0,黑龙江省,齐齐哈尔市,甘南县
37,50742,124.48,47.79,162.0,黑龙江省,齐齐哈尔市,富裕县
38,50745,123.92,47.38,146.0,黑龙江省,齐齐哈尔市,梅里斯达斡尔族区
39,50749,124.83,47.18,154.0,黑龙江省,大庆市,林甸县
40,50750,125.29,47.9,226.0,黑龙江省,齐齐哈尔市,依安县
41,50755,126.07,47.62,249.0,黑龙江省,齐齐哈尔市,拜泉县
42,50756,126.87,47.45,219.0,黑龙江省,绥化市,海伦市
43,50758,125.89,47.15,240.0,黑龙江省,绥化市,明水县
44,50767,127.1,47.23,202.0,黑龙江省,绥化市,绥棱县
45,50772,129.23,48.11,300.0,黑龙江省,伊春市,五营区
46,50774,128.84,47.71,264.0,黑龙江省,伊春市,乌马河区
47,50775,130.2,47.34,182.0,黑龙江省,鹤岗市,东山区
48,50776,130.83,47.57,83.0,黑龙江省,鹤岗市,萝北县
49,50778,132.54,47.66,57.0,黑龙江省,佳木斯市,同江市
50,50779,134.42,48.34,40.0,黑龙江省,佳木斯市,抚远县
51,50787,131.84,47.31,62.0,黑龙江省,鹤岗市,绥滨县
52,50788,132.0,47.23,66.0,黑龙江省,佳木斯市,富锦市
53,50832,122.08,46.72,332.0,内蒙古自治区,兴安盟,扎赉特旗
54,50833,122.88,46.74,218.0,内蒙古自治区,兴安盟,扎赉特旗
55,50834,121.22,46.6,499.0,内蒙古自治区,兴安盟,科尔沁右翼前旗
56,50838,122.05,46.08,274.0,内蒙古自治区,兴安盟,乌兰浩特市
57,50842,124.42,46.84,145.0,黑龙江省,大庆市,杜尔伯特蒙古族自治县
58,50844,123.45,46.4,138.0,黑龙江省,齐齐哈尔市,泰来县
59,50850,124.99,46.62,152.0,黑龙江省,大庆市,萨尔图区
60,50851,126.08,46.69,207.0,黑龙江省,绥化市,青冈县
61,50852,126.45,46.82,169.0,黑龙江省,绥化市,望奎县
62,50853,126.97,46.62,179.0,黑龙江省,绥化市,北林区
63,50854,125.32,46.38,149.0,黑龙江省,绥化市,安达市
64,50858,125.81,46.02,159.0,黑龙江省,绥化市,肇东市
65,50859,126.28,46.29,169.0,黑龙江省,绥化市,兰西县
66,50861,127.48,46.89,182.0,黑龙江省,绥化市,庆安县
67,50862,127.98,46.98,206.0,黑龙江省,伊春市,铁力市
68,50867,127.35,46.08,134.0,黑龙江省,哈尔滨市,巴彦县
69,50871,129.88,46.73,95.0,黑龙江省,佳木斯市,汤原县
70,50873,130.3,46.78,82.0,黑龙江省,佳木斯市,佳木斯市市辖区
71,50877,129.58,46.3,100.0,黑龙江省,哈尔滨市,依兰县
72,50878,130.72,47.0,78.0,黑龙江省,佳木斯市,桦川县
73,50879,130.56,46.23,187.0,黑龙江省,佳木斯市,桦南县
74,50880,131.11,46.74,102.0,黑龙江省,双鸭山市,集贤县
75,50881,131.79,46.78,70.0,黑龙江省,双鸭山市,友谊县
76,50884,131.15,46.65,175.0,黑龙江省,双鸭山市,尖山区
77,50888,132.17,46.39,79.0,黑龙江省,双鸭山市,宝清县
78,50892,133.99,46.79,54.0,黑龙江省,双鸭山市,饶河县
79,50913,118.83,45.72,865.0,内蒙古自治区,锡林郭勒盟,东乌珠穆沁旗
80,50915,116.97,45.52,838.0,内蒙古自治区,锡林郭勒盟,东乌珠穆沁旗
81,50924,119.65,45.55,860.0,内蒙古自治区,通辽市,霍林郭勒市
82,50928,120.33,45.07,628.0,内蒙古自治区,通辽市,扎鲁特旗
83,50934,121.58,45.38,311.0,内蒙古自治区,兴安盟,突泉县
84,50936,122.83,45.63,155.0,吉林省,白城市,洮北区
85,50937,121.48,45.06,282.0,内蒙古自治区,兴安盟,科尔沁右翼中旗
86,50939,122.76,45.35,150.0,吉林省,白城市,洮南市
87,50940,123.17,45.85,141.0,吉林省,白城市,镇赉县
88,50945,124.24,45.51,138.0,吉林省,白城市,大安市
89,50946,124.83,45.18,139.0,吉林省,松原市,宁江区
90,50948,124.02,45.0,146.0,吉林省,松原市,乾安县
91,50949,124.87,45.08,136.0,吉林省,松原市,宁江区
92,50950,125.25,45.7,148.0,黑龙江省,大庆市,肇州县
93,50953,126.57,45.93,118.0,黑龙江省,哈尔滨市,呼兰区
94,50954,125.08,45.5,127.0,黑龙江省,大庆市,肇源县
95,50955,126.32,45.39,168.0,黑龙江省,哈尔滨市,双城市
96,50956,126.77,46.09,134.0,黑龙江省,哈尔滨市,呼兰区
97,50958,126.94,45.53,168.0,黑龙江省,哈尔滨市,阿城区
98,50960,127.38,45.73,184.0,黑龙江省,哈尔滨市,宾县
99,50962,128.05,45.98,116.0,黑龙江省,哈尔滨市,木兰县
100,50963,128.73,45.97,108.0,黑龙江省,哈尔滨市,通河县
101,50964,128.8,45.83,119.0,黑龙江省,哈尔滨市,方正县
102,50965,128.28,45.44,167.0,黑龙江省,哈尔滨市,延寿县
103,50968,127.97,45.22,189.0,黑龙江省,哈尔滨市,尚志市
104,50971,130.98,45.84,194.0,黑龙江省,七台河市,勃利县
105,50973,130.61,45.75,234.0,黑龙江省,七台河市,勃利县
106,50978,130.91,45.31,272.0,黑龙江省,鸡西市,鸡冠区
107,50979,130.24,45.28,274.0,黑龙江省,牡丹江市,林口县
108,50983,132.88,45.76,98.0,黑龙江省,鸡西市,虎林市
109,50985,131.87,45.55,151.0,黑龙江省,鸡西市,密山市
110,50987,131.09,45.26,219.0,黑龙江省,鸡西市,鸡东县
111,51053,86.4,48.05,532.0,新疆维吾尔自治区,阿勒泰地区,哈巴河县
112,51058,87.97,47.1,563.0,新疆维吾尔自治区,阿勒泰地区,福海县
113,51059,85.88,47.45,968.0,新疆维吾尔自治区,阿勒泰地区,吉木乃县
114,51060,86.87,47.7,473.0,新疆维吾尔自治区,阿勒泰地区,布尔津县
115,51068,87.48,47.12,497.0,新疆维吾尔自治区,阿勒泰地区,福海县
116,51076,88.08,47.73,735.0,新疆维吾尔自治区,阿勒泰地区,阿勒泰市
117,51087,89.5,47.02,860.0,新疆维吾尔自治区,阿勒泰地区,富蕴县
118,51133,83.0,46.73,534.0,新疆维吾尔自治区,塔城地区,塔城市
119,51137,83.07,46.2,721.0,新疆维吾尔自治区,塔城地区,裕民县
120,51145,83.65,46.55,521.0,新疆维吾尔自治区,塔城地区,额敏县
121,51156,85.75,46.82,1322.0,新疆维吾尔自治区,塔城地区,和布克赛尔蒙古自治县
122,51186,90.38,46.67,1218.0,新疆维吾尔自治区,阿勒泰地区,青河县
123,51232,82.55,45.18,369.0,新疆维吾尔自治区,博尔塔拉蒙古自治州,博乐市
124,51238,82.07,44.9,532.0,新疆维吾尔自治区,博尔塔拉蒙古自治州,博乐市
125,51241,83.6,45.93,1094.0,新疆维吾尔自治区,塔城地区,托里县
126,51243,84.86,45.63,450.0,新疆维吾尔自治区,克拉玛依市,克拉玛依区
127,51288,90.53,45.37,1653.0,新疆维吾尔自治区,昌吉回族自治州,奇台县
128,51328,80.42,44.17,722.0,新疆维吾尔自治区,伊犁哈萨克自治州,霍城县
129,51329,80.85,44.05,640.0,新疆维吾尔自治区,伊犁哈萨克自治州,霍城县
130,51330,81.02,44.97,1357.0,新疆维吾尔自治区,博尔塔拉蒙古自治州,温泉县
131,51334,82.82,44.57,329.0,新疆维吾尔自治区,博尔塔拉蒙古自治州,精河县
132,51346,84.67,44.43,478.0,新疆维吾尔自治区,塔城地区,乌苏市
133,51352,85.25,44.85,337.0,新疆维吾尔自治区,塔城地区,沙湾县
134,51353,86.1,45.02,346.0,新疆维吾尔自治区,昌吉回族自治州,玛纳斯县
135,51356,86.05,44.32,442.0,新疆维吾尔自治区,石河子市,石河子市
136,51357,85.62,44.33,522.0,新疆维吾尔自治区,塔城地区,沙湾县
137,51358,85.82,44.28,468.0,新疆维吾尔自治区,塔城地区,沙湾县
138,51359,86.2,44.32,471.0,新疆维吾尔自治区,昌吉回族自治州,玛纳斯县
139,51365,87.53,44.2,440.0,新疆维吾尔自治区,五家渠市,五家渠市
140,51367,86.85,44.17,575.0,新疆维吾尔自治区,昌吉回族自治州,呼图壁县
141,51368,87.32,44.12,515.0,新疆维吾尔自治区,昌吉回族自治州,昌吉市
142,51369,87.65,43.97,600.0,新疆维吾尔自治区,乌鲁木齐市,米东区
143,51377,87.92,44.17,547.0,新疆维吾尔自治区,昌吉回族自治州,阜康市
144,51378,89.17,44.0,742.0,新疆维吾尔自治区,昌吉回族自治州,吉木萨尔县
145,51379,89.57,44.02,793.0,新疆维吾尔自治区,昌吉回族自治州,奇台县
146,51430,81.15,43.83,602.0,新疆维吾尔自治区,伊犁哈萨克自治州,察布查尔锡伯自治县
147,51431,81.33,43.95,662.0,新疆维吾尔自治区,伊犁哈萨克自治州,伊宁市
148,51433,82.52,43.8,1105.0,新疆维吾尔自治区,伊犁哈萨克自治州,尼勒克县
149,51434,81.53,43.97,770.0,新疆维吾尔自治区,伊犁哈萨克自治州,伊宁县
150,51435,82.23,43.47,774.0,新疆维吾尔自治区,伊犁哈萨克自治州,巩留县
151,51436,83.3,43.45,928.0,新疆维吾尔自治区,伊犁哈萨克自治州,新源县
152,51437,81.13,43.15,1851.0,新疆维吾尔自治区,伊犁哈萨克自治州,昭苏县
153,51438,81.77,43.18,1210.0,新疆维吾尔自治区,伊犁哈萨克自治州,特克斯县
154,51463,87.65,43.78,935.0,新疆维吾尔自治区,乌鲁木齐市,天山区
155,51465,87.1,43.48,1871.0,新疆维吾尔自治区,乌鲁木齐市,乌鲁木齐县
156,51467,86.33,42.77,1732.0,新疆维吾尔自治区,巴音郭楞蒙古自治州,和静县
157,51468,86.83,43.1,3539.0,新疆维吾尔自治区,乌鲁木齐市,乌鲁木齐县
158,51469,87.18,43.45,1930.0,新疆维吾尔自治区,乌鲁木齐市,乌鲁木齐县
159,51470,88.12,43.88,1942.0,新疆维吾尔自治区,昌吉回族自治州,阜康市
160,51477,88.32,43.35,1103.0,新疆维吾尔自治区,乌鲁木齐市,达坂城区
161,51482,90.28,43.83,1271.0,新疆维吾尔自治区,昌吉回族自治州,木垒哈萨克自治县
162,51495,91.73,43.22,721.0,新疆维吾尔自治区,哈密地区,哈密市
163,51526,88.22,42.23,922.0,新疆维吾尔自治区,吐鲁番地区,托克逊县
164,51542,84.15,43.03,2458.0,新疆维吾尔自治区,巴音郭楞蒙古自治州,和静县
165,51559,86.37,42.33,1113.0,新疆维吾尔自治区,巴音郭楞蒙古自治州,和静县
166,51567,86.6,42.05,1055.0,新疆维吾尔自治区,巴音郭楞蒙古自治州,焉耆回族自治县
167,51568,86.85,42.27,1085.0,新疆维吾尔自治区,巴音郭楞蒙古自治州,和硕县
168,51571,88.6,42.77,49.0,新疆维吾尔自治区,吐鲁番地区,托克逊县
169,51572,89.25,42.83,-48.0,新疆维吾尔自治区,吐鲁番地区,吐鲁番市
170,51573,89.23,42.95,39.0,新疆维吾尔自治区,吐鲁番地区,吐鲁番市
171,51581,90.23,42.85,398.0,新疆维吾尔自治区,吐鲁番地区,鄯善县
172,51627,79.23,41.22,1395.0,新疆维吾尔自治区,阿克苏地区,乌什县
173,51628,80.38,41.12,1107.0,新疆维吾尔自治区,阿克苏地区,温宿县
174,51629,80.23,41.27,1133.0,新疆维吾尔自治区,阿克苏地区,温宿县
175,51633,81.9,41.78,1229.0,新疆维吾尔自治区,阿克苏地区,拜城县
176,51636,82.65,41.55,1009.0,新疆维吾尔自治区,阿克苏地区,新和县
177,51639,82.77,41.25,982.0,新疆维吾尔自治区,阿克苏地区,沙雅县
178,51642,84.27,41.82,982.0,新疆维吾尔自治区,巴音郭楞蒙古自治州,轮台县
179,51644,82.97,41.72,1081.0,新疆维吾尔自治区,阿克苏地区,库车县
180,51655,86.27,41.35,884.0,新疆维吾尔自治区,巴音郭楞蒙古自治州,尉犁县
181,51656,85.82,41.73,899.0,新疆维吾尔自治区,巴音郭楞蒙古自治州,库尔勒市
182,51701,75.4,40.52,3504.0,新疆维吾尔自治区,克孜勒苏柯尔克孜自治州,乌恰县
183,51704,76.22,39.73,1267.0,新疆维吾尔自治区,克孜勒苏柯尔克孜自治州,阿图什市
184,51705,75.25,39.72,2175.0,新疆维吾尔自治区,克孜勒苏柯尔克孜自治州,乌恰县
185,51707,76.78,39.5,1204.0,新疆维吾尔自治区,喀什地区,伽师县
186,51708,75.95,39.15,1325.0,新疆维吾尔自治区,克孜勒苏柯尔克孜自治州,阿克陶县
187,51709,75.75,39.48,1385.0,新疆维吾尔自治区,喀什地区,疏附县
188,51711,78.45,40.93,1985.0,新疆维吾尔自治区,克孜勒苏柯尔克孜自治州,阿合奇县
189,51716,78.57,39.8,1116.0,新疆维吾尔自治区,喀什地区,巴楚县
190,51717,76.78,39.25,1206.0,新疆维吾尔自治区,喀什地区,岳普湖县
191,51720,79.05,40.5,1161.0,新疆维吾尔自治区,阿克苏地区,柯坪县
192,51722,80.4,40.65,1044.0,新疆维吾尔自治区,阿克苏地区,阿瓦提县
193,51730,81.27,40.55,1012.0,新疆维吾尔自治区,阿拉尔市,阿拉尔市
194,51747,83.67,39.0,1099.0,新疆维吾尔自治区,巴音郭楞蒙古自治州,且末县
195,51765,87.7,40.63,846.0,新疆维吾尔自治区,巴音郭楞蒙古自治州,尉犁县
196,51777,88.18,39.02,888.0,新疆维吾尔自治区,巴音郭楞蒙古自治州,若羌县
197,51787,89.59,39.48,847.0,新疆维吾尔自治区,巴音郭楞蒙古自治州,若羌县
198,51802,76.17,38.93,1297.0,新疆维吾尔自治区,喀什地区,英吉沙县
199,51804,75.23,37.77,3090.0,新疆维吾尔自治区,喀什地区,塔什库尔干塔吉克自治县
200,51810,77.63,38.92,1178.0,新疆维吾尔自治区,喀什地区,麦盖提县
201,51811,77.27,38.43,1231.0,新疆维吾尔自治区,喀什地区,莎车县
202,51814,77.4,37.92,1360.0,新疆维吾尔自治区,喀什地区,叶城县
203,51815,77.27,38.2,1274.0,新疆维吾尔自治区,喀什地区,泽普县
204,51818,78.28,37.62,1375.0,新疆维吾尔自治区,和田地区,皮山县
205,51822,80.91,38.39,1181.0,新疆维吾尔自治区,和田地区,洛浦县
206,51826,80.8,37.02,1336.0,新疆维吾尔自治区,和田地区,策勒县
207,51827,79.63,37.17,1348.0,新疆维吾尔自治区,和田地区,墨玉县
208,51828,79.93,37.13,1375.0,新疆维吾尔自治区,和田地区,和田市
209,51829,80.23,37.05,1295.0,新疆维吾尔自治区,和田地区,洛浦县
210,51839,82.57,37.07,1409.0,新疆维吾尔自治区,和田地区,民丰县
211,51855,85.55,38.15,1247.0,新疆维吾尔自治区,巴音郭楞蒙古自治州,且末县
212,51886,90.85,38.25,2944.0,青海省,海西蒙古族藏族自治州,茫崖行政委员会
213,51931,81.65,36.85,1422.0,新疆维吾尔自治区,和田地区,于田县
214,51991,91.67,36.83,3953.0,青海省,海西蒙古族藏族自治州,格尔木市
215,52101,93.05,43.6,1679.0,新疆维吾尔自治区,哈密地区,巴里坤哈萨克自治县
216,52112,94.98,43.75,479.0,新疆维吾尔自治区,哈密地区,伊吾县
217,52118,94.7,43.27,1728.0,新疆维吾尔自治区,哈密地区,伊吾县
218,52203,93.52,42.82,737.0,新疆维吾尔自治区,哈密地区,哈密市
219,52267,101.06,41.96,939.0,内蒙古自治区,阿拉善盟,额济纳旗
220,52313,94.67,41.53,1573.0,甘肃省,酒泉市,敦煌市
221,52323,97.03,41.8,1770.0,甘肃省,酒泉市,肃北蒙古族自治县
222,52378,102.37,41.37,960.0,内蒙古自治区,阿拉善盟,额济纳旗
223,52418,94.68,40.15,1139.0,甘肃省,酒泉市,敦煌市
224,52424,95.78,40.53,1170.0,甘肃省,酒泉市,瓜州县
225,52436,97.03,40.27,1526.0,甘肃省,酒泉市,玉门市
226,52446,99.52,40.31,1177.0,甘肃省,酒泉市,金塔县
227,52447,98.89,40.0,1270.0,甘肃省,酒泉市,金塔县
228,52495,104.8,40.16,1290.0,内蒙古自治区,阿拉善盟,阿拉善左旗
229,52515,94.87,39.52,2137.0,甘肃省,酒泉市,肃北蒙古族自治县
230,52533,98.48,39.77,1477.0,甘肃省,酒泉市,肃州区
231,52546,99.83,39.37,1332.0,甘肃省,张掖市,高台县
232,52557,100.16,39.15,1453.0,甘肃省,张掖市,临泽县
233,52575,102.78,39.42,1239.0,内蒙古自治区,阿拉善盟,阿拉善右旗
234,52576,101.68,39.22,1510.0,内蒙古自治区,阿拉善盟,阿拉善右旗
235,52602,93.33,38.75,2770.0,青海省,海西蒙古族藏族自治州,冷湖行政委员会
236,52607,106.65,39.43,1252.0,内蒙古自治区,阿拉善盟,阿拉善左旗
237,52633,98.42,38.82,3367.0,青海省,海北藏族自治州,祁连县
238,52643,99.62,38.83,2311.0,甘肃省,张掖市,肃南裕固族自治县
239,52645,99.6,38.43,3314.0,青海省,海北藏族自治州,祁连县
240,52652,100.28,39.08,1461.0,甘肃省,张掖市,甘州区
241,52656,100.82,38.46,2232.0,甘肃省,张掖市,民乐县
242,52657,100.25,38.18,2787.0,青海省,海北藏族自治州,祁连县
243,52661,101.08,38.79,1765.0,甘肃省,张掖市,山丹县
244,52674,101.93,38.22,2093.0,甘肃省,金昌市,永昌县
245,52675,102.2,38.53,1508.0,甘肃省,金昌市,金川区
246,52679,102.87,37.89,1540.0,甘肃省,武威市,凉州区
247,52681,103.09,38.63,1367.0,甘肃省,武威市,民勤县
248,52707,93.68,36.8,2767.0,青海省,海西蒙古族藏族自治州,格尔木市
249,52713,95.35,37.85,3173.0,青海省,海西蒙古族藏族自治州,大柴旦行政委员会
250,52737,97.38,37.37,2981.0,青海省,海西蒙古族藏族自治州,德令哈市
251,52745,99.02,37.3,3417.0,青海省,海西蒙古族藏族自治州,天峻县
252,52754,100.13,37.33,3301.0,青海省,海北藏族自治州,刚察县
253,52765,101.61,37.38,2850.0,青海省,海北藏族自治州,门源回族自治县
254,52784,102.9,37.47,2072.0,甘肃省,武威市,古浪县
255,52787,102.87,37.2,3045.0,甘肃省,武威市,天祝藏族自治县
256,52797,104.05,37.18,1630.0,甘肃省,白银市,景泰县
257,52818,94.91,36.42,2807.0,青海省,海西蒙古族藏族自治州,格尔木市
258,52825,96.43,36.44,2790.0,青海省,海西蒙古族藏族自治州,都兰县
259,52833,98.49,36.93,2950.0,青海省,海西蒙古族藏族自治州,乌兰县
260,52836,98.1,36.3,3189.0,青海省,海西蒙古族藏族自治州,都兰县
261,52842,99.07,36.79,3087.0,青海省,海西蒙古族藏族自治州,乌兰县
262,52853,100.98,36.9,3010.0,青海省,海北藏族自治州,海晏县
263,52854,100.49,36.59,3200.0,青海省,海南藏族自治州,共和县
264,52855,101.25,36.68,2675.0,青海省,西宁市,湟源县
265,52856,100.62,36.27,2835.0,青海省,海南藏族自治州,共和县
266,52862,101.66,36.97,2470.0,青海省,西宁市,大通回族土族自治县
267,52863,101.95,36.82,2480.0,青海省,海东地区,互助土族自治县
268,52866,101.73,36.66,2434.0,青海省,西宁市,城北区
269,52868,101.37,36.02,2273.0,青海省,海南藏族自治州,贵德县
270,52869,101.58,36.5,2667.0,青海省,西宁市,湟中县
271,52874,102.41,36.49,2021.0,青海省,海东地区,乐都县
272,52875,102.1,36.5,2125.0,青海省,海东地区,平安县
273,52876,102.84,36.33,1813.0,青海省,海东地区,民和回族土族自治县
274,52877,102.25,36.1,2834.0,青海省,海东地区,化隆回族自治县
275,52881,103.19,36.99,2484.0,甘肃省,武威市,天祝藏族自治县
276,52884,103.94,36.35,1668.0,甘肃省,兰州市,皋兰县
277,52885,103.26,36.75,2118.0,甘肃省,兰州市,永登县
278,52889,103.88,36.04,1517.0,甘肃省,兰州市,城关区
279,52895,104.69,36.57,1398.0,甘肃省,白银市,靖远县
280,52896,104.14,36.55,1736.0,甘肃省,白银市,白银区
281,52908,93.08,35.22,4612.0,青海省,玉树藏族自治州,治多县
282,52941,100.26,36.26,2872.0,青海省,海南藏族自治州,共和县
283,52943,99.98,35.58,3323.0,青海省,海南藏族自治州,兴海县
284,52955,100.73,35.58,3120.0,青海省,海南藏族自治州,贵南县
285,52957,100.6,35.24,3148.0,青海省,海南藏族自治州,同德县
286,52963,102.02,35.93,2085.0,青海省,黄南藏族自治州,尖扎县
287,52968,101.47,35.03,3662.0,青海省,黄南藏族自治州,泽库县
288,52972,102.46,35.85,1921.0,青海省,海东地区,循化撒拉族自治县
289,52974,102.03,35.54,2475.0,青海省,黄南藏族自治州,同仁县
290,52978,102.49,35.19,2948.0,甘肃省,甘南藏族自治州,夏河县
291,52980,103.3,35.97,1648.0,甘肃省,临夏回族自治州,永靖县
292,52981,103.38,35.68,2421.0,甘肃省,临夏回族自治州,东乡族自治县
293,52982,103.56,35.48,1953.0,甘肃省,临夏回族自治州,广河县
294,52983,104.14,35.87,1874.0,甘肃省,兰州市,榆中县
295,52984,103.18,35.58,1917.0,甘肃省,临夏回族自治州,临夏市
296,52985,103.34,35.41,2162.0,甘肃省,临夏回族自治州,和政县
297,52986,103.86,35.36,1893.0,甘肃省,定西市,临洮县
298,52988,103.72,35.37,2015.0,甘肃省,临夏回族自治州,康乐县
299,52993,105.06,35.68,1739.0,甘肃省,白银市,会宁县
300,52995,104.6,35.58,2004.0,甘肃省,定西市,安定区
301,52996,105.01,35.39,2450.0,甘肃省,定西市,通渭县
302,52998,104.2,35.13,2111.0,甘肃省,定西市,渭源县
303,53068,111.94,43.63,963.0,内蒙古自治区,锡林郭勒盟,二连浩特市
304,53083,114.15,44.62,1181.0,内蒙古自治区,锡林郭勒盟,阿巴嘎旗
305,53149,110.13,42.53,1225.0,内蒙古自治区,包头市,达尔罕茂明安联合旗
306,53192,115.0,44.02,1147.0,内蒙古自治区,锡林郭勒盟,阿巴嘎旗
307,53195,113.63,43.85,1036.0,内蒙古自治区,锡林郭勒盟,苏尼特左旗
308,53231,106.4,41.4,1510.0,内蒙古自治区,巴彦淖尔市,乌拉特后旗
309,53272,112.63,42.75,1104.0,内蒙古自治区,锡林郭勒盟,苏尼特右旗
310,53276,112.9,42.4,1150.0,内蒙古自治区,锡林郭勒盟,苏尼特右旗
311,53289,113.83,42.23,1322.0,内蒙古自治区,锡林郭勒盟,镶黄旗
312,53324,107.05,41.07,1035.0,内蒙古自治区,巴彦淖尔市,乌拉特后旗
313,53336,108.52,41.57,1288.0,内蒙古自治区,巴彦淖尔市,乌拉特中旗
314,53337,108.47,41.09,1023.0,内蒙古自治区,巴彦淖尔市,五原县
315,53343,109.97,41.77,1612.0,内蒙古自治区,包头市,白云鄂博矿区
316,53348,109.13,41.02,1078.0,内蒙古自治区,巴彦淖尔市,乌拉特前旗
317,53352,110.43,41.7,1376.0,内蒙古自治区,包头市,达尔罕茂明安联合旗
318,53357,110.1,41.03,1403.0,内蒙古自治区,包头市,固阳县
319,53362,111.65,41.55,1445.0,内蒙古自治区,乌兰察布市,四子王旗
320,53367,111.23,41.32,1602.0,内蒙古自治区,包头市,达尔罕茂明安联合旗
321,53368,111.46,41.08,1637.0,内蒙古自治区,呼和浩特市,武川县
322,53378,112.62,41.28,1737.0,内蒙古自治区,乌兰察布市,察哈尔右翼中旗
323,53384,113.18,41.45,1423.0,内蒙古自治区,乌兰察布市,察哈尔右翼后旗
324,53385,113.54,41.6,1420.0,内蒙古自治区,乌兰察布市,商都县
325,53391,114.0,41.9,1482.0,内蒙古自治区,乌兰察布市,化德县
326,53392,114.56,41.86,1434.0,河北省,张家口市,康保县
327,53397,113.98,41.1,1376.0,河北省,张家口市,尚义县
328,53399,114.7,41.15,1393.0,河北省,张家口市,张北县
329,53419,107.0,40.33,1055.0,内蒙古自治区,巴彦淖尔市,磴口县
330,53420,107.12,40.85,1024.0,内蒙古自治区,巴彦淖尔市,杭锦后旗
331,53433,108.65,40.73,1020.0,内蒙古自治区,巴彦淖尔市,乌拉特前旗
332,53446,109.88,40.53,1004.0,内蒙古自治区,包头市,九原区
333,53455,110.53,40.55,998.0,内蒙古自治区,包头市,土默特右旗
334,53457,110.03,40.4,1011.0,内蒙古自治区,鄂尔多斯市,达拉特旗
335,53463,111.57,40.86,1153.0,内蒙古自治区,呼和浩特市,回民区
336,53464,111.17,40.72,1042.0,内蒙古自治区,呼和浩特市,土默特左旗
337,53466,111.7,40.75,1045.0,内蒙古自治区,呼和浩特市,玉泉区
338,53467,111.25,40.25,1015.0,内蒙古自治区,呼和浩特市,托克托县
339,53469,111.82,40.4,1166.0,内蒙古自治区,呼和浩特市,和林格尔县
340,53472,112.57,40.87,1451.0,内蒙古自治区,乌兰察布市,卓资县
341,53475,112.47,40.52,1268.0,内蒙古自治区,乌兰察布市,凉城县
342,53478,112.47,40.0,1345.0,山西省,朔州市,右玉县
343,53480,113.07,41.03,1419.0,内蒙古自治区,乌兰察布市,集宁区
344,53481,113.21,40.81,1284.0,内蒙古自治区,乌兰察布市,察哈尔右翼前旗
345,53483,113.83,40.87,1268.0,内蒙古自治区,乌兰察布市,兴和县
346,53484,113.15,40.45,1191.0,内蒙古自治区,乌兰察布市,丰镇市
347,53486,113.77,40.37,1050.0,山西省,大同市,阳高县
348,53487,113.42,40.08,1052.0,山西省,大同市,大同县
349,53488,113.58,40.03,1034.0,山西省,大同市,大同县
350,53490,114.07,40.43,1014.0,山西省,大同市,天镇县
351,53491,114.38,40.68,837.0,河北省,张家口市,怀安县
352,53492,114.15,40.1,937.0,河北省,张家口市,阳原县
353,53498,115.03,40.57,629.0,河北省,张家口市,宣化县
354,53499,114.73,40.77,755.0,河北省,张家口市,万全县
355,53502,105.75,39.78,1031.0,内蒙古自治区,阿拉善盟,阿拉善左旗
356,53505,105.4,37.88,1380.0,内蒙古自治区,阿拉善盟,阿拉善左旗
357,53512,106.8,39.8,1105.0,内蒙古自治区,乌海市,海勃湾区
358,53513,107.37,40.73,1041.0,内蒙古自治区,巴彦淖尔市,临河区
359,53517,106.33,39.26,1464.0,宁夏回族自治区,石嘴山市,大武口区
360,53518,106.35,39.03,1126.0,宁夏回族自治区,石嘴山市,大武口区
361,53519,106.76,39.21,1092.0,宁夏回族自治区,石嘴山市,惠农区
362,53522,107.83,40.05,1180.0,内蒙古自治区,鄂尔多斯市,杭锦旗
363,53529,107.96,39.09,1381.0,内蒙古自治区,鄂尔多斯市,鄂托克旗
364,53533,108.71,39.81,1414.0,内蒙古自治区,鄂尔多斯市,杭锦旗
365,53543,110.01,39.82,1462.0,内蒙古自治区,鄂尔多斯市,东胜区
366,53545,109.71,39.56,1367.0,内蒙古自治区,鄂尔多斯市,伊金霍洛旗
367,53547,109.03,39.1,1312.0,内蒙古自治区,鄂尔多斯市,乌审旗
368,53553,111.22,39.87,1221.0,内蒙古自治区,鄂尔多斯市,准格尔旗
369,53562,111.66,39.92,1208.0,内蒙古自治区,呼和浩特市,清水河县
370,53564,111.22,39.37,1036.0,山西省,忻州市,河曲县
371,53565,111.5,39.43,1051.0,山西省,忻州市,偏关县
372,53567,111.0,39.02,1024.0,陕西省,榆林市,府谷县
373,53573,112.7,40.0,1336.0,山西省,大同市,左云县
374,53574,112.27,39.52,1409.0,山西省,朔州市,平鲁区
375,53575,112.2,39.1,1525.0,山西省,忻州市,神池县
376,53576,112.82,39.52,1045.0,山西省,朔州市,山阴县
377,53577,112.3,39.0,1437.0,山西省,忻州市,宁武县
378,53578,112.43,39.37,1114.0,山西省,朔州市,朔城区
379,53579,112.92,39.05,859.0,山西省,忻州市,代县
380,53580,113.1,39.83,1044.0,山西省,朔州市,怀仁县
381,53582,113.66,39.71,1079.0,山西省,大同市,浑源县
382,53584,113.17,39.57,1000.0,山西省,朔州市,应县
383,53585,113.27,39.17,933.0,山西省,忻州市,繁峙县
384,53588,113.52,38.93,2208.0,山西省,忻州市,五台县
385,53590,114.27,39.75,977.0,山西省,大同市,广灵县
386,53593,114.57,39.83,909.0,河北省,张家口市,蔚县
387,53594,114.22,39.45,938.0,山西省,大同市,灵丘县
388,53596,115.16,38.91,80.0,河北省,保定市,顺平县
389,53599,114.68,39.37,884.0,河北省,保定市,涞源县
390,53602,105.67,38.83,1561.0,内蒙古自治区,阿拉善盟,阿拉善左旗
391,53603,106.37,38.83,1099.0,宁夏回族自治区,石嘴山市,平罗县
392,53610,106.34,38.56,1106.0,宁夏回族自治区,银川市,贺兰县
393,53611,106.55,38.88,1098.0,宁夏回族自治区,石嘴山市,平罗县
394,53612,106.18,37.99,1127.0,宁夏回族自治区,吴忠市,利通区
395,53614,106.21,38.47,1111.0,宁夏回族自治区,银川市,金凤区
396,53615,106.7,38.81,1101.0,宁夏回族自治区,石嘴山市,平罗县
397,53617,106.08,38.03,1125.0,宁夏回族自治区,吴忠市,青铜峡市
398,53618,106.26,38.29,1115.0,宁夏回族自治区,银川市,永宁县
399,53619,106.3,38.12,1115.0,宁夏回族自治区,银川市,灵武市
400,53644,108.83,38.6,1307.0,内蒙古自治区,鄂尔多斯市,乌审旗
401,53646,109.78,38.27,1157.0,陕西省,榆林市,榆阳区
402,53651,110.47,38.82,1098.0,陕西省,榆林市,神木县
403,53658,110.48,38.03,894.0,陕西省,榆林市,佳县
404,53659,111.0,37.97,1163.0,山西省,吕梁市,临县
405,53660,111.08,39.02,894.0,山西省,忻州市,保德县
406,53662,111.57,38.7,1396.0,山西省,忻州市,岢岚县
407,53663,111.82,38.93,1401.0,山西省,忻州市,五寨县
408,53664,111.13,38.47,1012.0,山西省,吕梁市,兴县
409,53665,111.63,38.28,1221.0,山西省,吕梁市,岚县
410,53666,111.93,38.37,1212.0,山西省,忻州市,静乐县
411,53669,111.82,38.07,1150.0,山西省,太原市,娄烦县
412,53673,112.72,38.73,828.0,山西省,忻州市,原平市
413,53674,112.7,38.4,869.0,山西省,忻州市,忻府区
414,53676,112.98,38.5,759.0,山西省,忻州市,定襄县
415,53677,112.48,37.93,806.0,山西省,太原市,尖草坪区
416,53678,112.65,38.07,897.0,山西省,太原市,阳曲县
417,53679,112.54,37.75,776.0,山西省,太原市,晋源区
418,53680,114.38,38.3,108.0,河北省,石家庄市,灵寿县
419,53681,113.37,38.83,1096.0,山西省,忻州市,五台县
420,53682,114.68,38.63,104.0,河北省,保定市,曲阳县
421,53685,113.42,38.08,953.0,山西省,阳泉市,盂县
422,53687,113.63,37.78,753.0,山西省,阳泉市,平定县
423,53688,114.55,38.42,100.0,河北省,石家庄市,行唐县
424,53689,115.07,38.02,42.0,河北省,石家庄市,晋州市
425,53690,114.18,38.85,281.0,河北省,保定市,阜平县
426,53691,114.57,38.15,71.0,河北省,石家庄市,正定县
427,53692,114.98,38.73,66.0,河北省,保定市,唐县
428,53693,114.13,38.03,255.0,河北省,石家庄市,井陉县
429,53694,114.22,38.27,131.0,河北省,石家庄市,平山县
430,53695,114.68,38.35,70.0,河北省,石家庄市,新乐市
431,53696,115.01,38.54,41.0,河北省,保定市,定州市
432,53697,114.83,38.03,53.0,河北省,石家庄市,藁城市
433,53698,114.4,38.02,89.0,河北省,石家庄市,鹿泉市
434,53699,114.95,38.18,45.0,河北省,石家庄市,无极县
435,53704,105.18,37.53,1226.0,宁夏回族自治区,中卫市,沙坡头区
436,53705,105.68,37.48,1181.0,宁夏回族自治区,中卫市,中宁县
437,53707,105.25,36.94,1697.0,宁夏回族自治区,中卫市,沙坡头区
438,53716,106.96,37.46,1552.0,宁夏回族自治区,吴忠市,盐池县
439,53723,107.24,37.79,1350.0,宁夏回族自治区,吴忠市,盐池县
440,53725,107.58,37.58,1360.0,陕西省,榆林市,定边县
441,53727,107.11,37.17,1691.0,宁夏回族自治区,吴忠市,盐池县
442,53730,107.48,38.18,1333.0,内蒙古自治区,鄂尔多斯市,鄂托克前旗
443,53732,108.72,37.85,1209.0,内蒙古自治区,鄂尔多斯市,乌审旗
444,53735,108.8,37.62,1336.0,陕西省,榆林市,靖边县
445,53738,108.17,36.92,1331.0,陕西省,延安市,吴起县
446,53740,109.23,37.93,1111.0,陕西省,榆林市,横山县
447,53748,109.7,37.18,1063.0,陕西省,延安市,子长县
448,53750,110.18,37.76,931.0,陕西省,榆林市,米脂县
449,53751,110.03,37.6,996.0,陕西省,榆林市,子洲县
450,53753,110.88,37.43,860.0,山西省,吕梁市,柳林县
451,53754,110.22,37.5,929.0,陕西省,榆林市,绥德县
452,53756,110.72,37.52,744.0,陕西省,榆林市,吴堡县
453,53757,110.12,37.12,938.0,陕西省,榆林市,清涧县
454,53759,110.83,37.0,1109.0,山西省,吕梁市,石楼县
455,53760,111.23,37.88,1212.0,山西省,吕梁市,方山县
456,53763,112.17,37.9,1006.0,山西省,太原市,古交市
457,53764,111.12,37.5,950.0,山西省,吕梁市,离石区
458,53767,111.18,37.33,1213.0,山西省,吕梁市,中阳县
459,53768,111.75,37.15,773.0,山西省,吕梁市,孝义市
460,53769,111.78,37.25,747.0,山西省,吕梁市,汾阳市
461,53770,112.35,37.35,768.0,山西省,晋中市,祁县
462,53771,112.05,37.42,750.0,山西省,吕梁市,文水县
463,53772,112.58,37.62,776.0,山西省,太原市,小店区
464,53773,114.62,36.33,64.0,河北省,邯郸市,临漳县
465,53774,112.37,37.58,759.0,山西省,太原市,清徐县
466,53775,112.59,37.42,785.0,山西省,晋中市,太谷县
467,53776,112.78,37.7,854.0,山西省,晋中市,榆次区
468,53777,112.15,37.52,753.0,山西省,吕梁市,交城县
469,53778,112.23,37.17,780.0,山西省,晋中市,平遥县
470,53780,113.15,37.91,1066.0,山西省,晋中市,寿阳县
471,53781,114.47,36.87,67.0,河北省,邢台市,沙河市
472,53782,113.62,37.93,767.0,山西省,阳泉市,郊区
473,53783,113.72,37.6,940.0,山西省,晋中市,昔阳县
474,53784,114.78,37.75,38.0,河北省,石家庄市,赵县
475,53785,114.67,37.52,35.0,河北省,邢台市,柏乡县
476,53786,113.33,37.08,1152.0,山西省,晋中市,左权县
477,53787,112.98,37.07,1041.0,山西省,晋中市,榆社县
478,53788,113.57,37.33,1265.0,山西省,晋中市,和顺县
479,53789,114.63,37.88,52.0,河北省,石家庄市,栾城县
480,53790,114.61,37.63,44.0,河北省,石家庄市,高邑县
481,53791,114.5,37.81,68.0,河北省,石家庄市,元氏县
482,53792,114.48,37.45,113.0,河北省,邢台市,临城县
483,53794,114.78,37.39,31.0,河北省,邢台市,隆尧县
484,53795,114.41,37.66,159.0,河北省,石家庄市,赞皇县
485,53796,114.89,37.62,30.0,河北省,邢台市,宁晋县
486,53797,114.39,37.29,163.0,河北省,邢台市,内丘县
487,53798,114.36,37.18,183.0,河北省,邢台市,邢台县
488,53799,115.0,37.24,25.0,河北省,邢台市,巨鹿县
489,53801,105.29,36.64,2022.0,宁夏回族自治区,中卫市,海原县
490,53806,105.64,36.57,1855.0,宁夏回族自治区,中卫市,海原县
491,53810,105.89,36.97,1336.0,宁夏回族自治区,吴忠市,同心县
492,53817,106.24,36.03,1835.0,宁夏回族自治区,固原市,原州区
493,53821,107.3,36.57,1255.0,甘肃省,庆阳市,环县
494,53829,107.89,35.98,1093.0,甘肃省,庆阳市,庆城县
495,53832,108.77,36.81,1297.0,陕西省,延安市,志丹县
496,53841,109.32,36.88,1068.0,陕西省,延安市,安塞县
497,53845,109.45,36.58,1180.0,陕西省,延安市,宝塔区
498,53848,109.35,36.27,1005.0,陕西省,延安市,甘泉县
499,53850,110.18,36.88,804.0,陕西省,延安市,延川县
500,53852,110.63,36.77,916.0,山西省,临汾市,永和县
501,53853,110.95,36.7,1052.0,山西省,临汾市,隰县
502,53854,110.07,36.58,804.0,陕西省,延安市,延长县
503,53856,110.75,36.47,765.0,山西省,临汾市,大宁县
504,53857,110.18,36.07,840.0,陕西省,延安市,宜川县
505,53859,110.67,36.08,851.0,山西省,临汾市,吉县
506,53860,111.17,36.98,1406.0,山西省,吕梁市,交口县
507,53861,111.38,35.9,463.0,山西省,临汾市,襄汾县
508,53862,111.8,36.85,811.0,山西省,晋中市,灵石县
509,53863,111.94,37.06,746.0,山西省,晋中市,介休市
510,53864,111.1,36.4,1030.0,山西省,临汾市,蒲县
511,53865,111.56,36.66,1011.0,山西省,临汾市,汾西县
512,53866,111.67,36.23,462.0,山西省,临汾市,洪洞县
513,53868,111.5,36.07,449.0,山西省,临汾市,尧都区
514,53869,111.7,36.58,550.0,山西省,临汾市,霍州市
515,53871,112.87,36.85,1080.0,山西省,长治市,武乡县
516,53872,112.7,36.77,1030.0,山西省,长治市,沁县
517,53873,112.87,36.1,951.0,山西省,长治市,长子县
518,53874,111.9,36.25,648.0,山西省,临汾市,古县
519,53875,112.33,36.52,1000.0,山西省,长治市,沁源县
520,53877,112.25,36.13,1011.0,山西省,临汾市,安泽县
521,53878,113.37,36.5,780.0,山西省,长治市,黎城县
522,53879,112.88,36.32,952.0,山西省,长治市,屯留县
523,53880,113.23,36.33,947.0,山西省,长治市,潞城市
524,53881,106.48,37.29,1382.0,宁夏回族自治区,吴忠市,同心县
525,53882,113.03,36.07,1046.0,山西省,长治市,长治县
526,53883,114.7,37.13,36.0,河北省,邢台市,任县
527,53884,113.03,36.5,877.0,山西省,长治市,襄垣县
528,53885,113.2,36.12,1122.0,山西省,长治市,壶关县
529,53886,113.67,36.57,470.0,河北省,邯郸市,涉县
530,53888,113.43,36.2,1089.0,山西省,长治市,平顺县
531,53889,113.87,36.06,414.0,河南省,安阳市,林州市
532,53890,114.1,36.67,280.0,河北省,邯郸市,武安市
533,53891,114.68,37.02,43.0,河北省,邢台市,南和县
534,53892,114.47,36.62,66.0,河北省,邯郸市,复兴区
535,53893,115.0,36.79,37.0,河北省,邯郸市,曲周县
536,53894,114.2,36.4,149.0,河北省,邯郸市,峰峰矿区
537,53895,114.46,36.75,111.0,河北省,邯郸市,永年县
538,53896,114.95,36.33,51.0,河北省,邯郸市,魏县
539,53897,114.34,36.4,87.0,河北省,邯郸市,磁县
540,53898,114.14,36.05,194.0,河南省,安阳市,安阳县
541,53899,114.97,36.48,48.0,河北省,邯郸市,广平县
542,53903,105.71,35.97,1916.0,宁夏回族自治区,固原市,西吉县
543,53906,105.71,35.52,1656.0,甘肃省,平凉市,静宁县
544,53908,105.23,35.21,1769.0,甘肃省,定西市,通渭县
545,53910,106.2,35.66,2845.0,宁夏回族自治区,固原市,隆德县
546,53913,106.63,35.85,1478.0,宁夏回族自治区,固原市,彭阳县
547,53914,106.12,35.62,2078.0,宁夏回族自治区,固原市,隆德县
548,53915,106.66,35.53,1467.0,甘肃省,平凉市,崆峒区
549,53916,106.31,35.49,1984.0,宁夏回族自治区,固原市,泾源县
550,53917,106.06,35.22,1631.0,甘肃省,平凉市,庄浪县
551,53923,107.63,35.73,1421.0,甘肃省,庆阳市,西峰区
552,53924,107.62,35.07,966.0,甘肃省,平凉市,灵台县
553,53925,107.21,35.72,1428.0,甘肃省,庆阳市,镇原县
554,53926,107.35,35.34,1028.0,甘肃省,平凉市,泾川县
555,53927,106.62,35.2,1477.0,甘肃省,平凉市,华亭县
556,53928,107.02,35.3,1149.0,甘肃省,平凉市,崇信县
557,53929,107.8,35.2,1206.0,陕西省,咸阳市,长武县
558,53930,107.99,36.45,1420.0,甘肃省,庆阳市,华池县
559,53931,109.37,36.0,984.0,陕西省,延安市,富县
560,53934,107.98,35.78,1274.0,甘肃省,庆阳市,合水县
561,53935,108.4,35.49,1481.0,甘肃省,庆阳市,正宁县
562,53937,107.89,35.53,1135.0,甘肃省,庆阳市,宁县
563,53938,108.3,35.17,1277.0,陕西省,咸阳市,旬邑县
564,53941,109.58,35.18,804.0,陕西省,渭南市,白水县
565,53942,109.36,35.79,1087.0,陕西省,延安市,洛川县
566,53944,109.24,35.57,940.0,陕西省,延安市,黄陵县
567,53945,109.07,35.43,1395.0,陕西省,铜川市,宜君县
568,53946,109.82,35.6,1091.0,陕西省,延安市,黄龙县
569,53947,109.07,35.08,978.0,陕西省,铜川市,王益区
570,53948,109.63,34.89,387.0,陕西省,渭南市,蒲城县
571,53949,109.92,35.18,679.0,陕西省,渭南市,澄城县
572,53950,110.19,35.25,752.0,陕西省,渭南市,合阳县
573,53953,110.86,35.95,1290.0,山西省,临汾市,乡宁县
574,53954,110.97,35.62,433.0,山西省,运城市,稷山县
575,53955,110.46,35.52,461.0,陕西省,渭南市,韩城市
576,53956,110.85,35.42,588.0,山西省,运城市,万荣县
577,53957,110.72,35.62,459.0,山西省,运城市,河津市
578,53958,110.78,35.17,435.0,山西省,运城市,临猗县
579,53959,111.07,35.12,375.0,山西省,运城市,盐湖区
580,53961,111.49,35.65,472.0,山西省,临汾市,曲沃县
581,53962,111.7,35.73,584.0,山西省,临汾市,翼城县
582,53963,111.37,35.65,433.0,山西省,临汾市,侯马市
583,53964,111.21,35.62,430.0,山西省,运城市,新绛县
584,53965,111.57,35.5,761.0,山西省,运城市,绛县
585,53966,111.83,35.98,817.0,山西省,临汾市,浮山县
586,53967,111.2,35.33,468.0,山西省,运城市,闻喜县
587,53968,111.67,35.28,505.0,山西省,运城市,垣曲县
588,53970,112.2,35.68,887.0,山西省,晋城市,沁水县
589,53972,112.9,35.05,117.0,河南省,焦作市,沁阳市
590,53973,112.95,35.78,837.0,山西省,晋城市,高平市
591,53974,114.23,35.61,70.0,河南省,鹤壁市,淇县
592,53975,112.42,35.48,659.0,山西省,晋城市,阳城县
593,53976,112.87,35.5,752.0,山西省,晋城市,城区
594,53978,112.63,35.09,140.0,河南省,济源市,济源市
595,53979,113.08,35.15,120.0,河南省,焦作市,博爱县
596,53980,114.8,36.55,50.0,河北省,邯郸市,肥乡县
597,53981,113.27,35.77,1311.0,山西省,晋城市,陵川县
598,53982,113.27,35.24,112.0,河南省,焦作市,山阳区
599,53983,114.41,35.03,69.0,河南省,新乡市,封丘县
600,53984,113.46,35.23,82.0,河南省,焦作市,修武县
601,53985,113.81,35.49,140.0,河南省,新乡市,辉县市
602,53986,113.91,35.32,73.0,河南省,新乡市,牧野区
603,53987,113.36,35.11,94.0,河南省,焦作市,武陟县
604,53988,113.72,35.27,77.0,河南省,新乡市,获嘉县
605,53989,113.98,35.08,75.0,河南省,新乡市,原阳县
606,53991,114.33,35.92,93.0,河南省,安阳市,汤阴县
607,53992,114.52,35.66,58.0,河南省,鹤壁市,浚县
608,53993,114.91,35.94,51.0,河南省,安阳市,内黄县
609,53994,114.1,35.43,68.0,河南省,新乡市,卫辉市
610,53995,114.45,35.52,62.0,河南省,安阳市,滑县
611,53996,114.65,36.45,57.0,河北省,邯郸市,成安县
612,53997,114.2,35.17,70.0,河南省,新乡市,延津县
613,53998,114.65,35.19,61.0,河南省,新乡市,长垣县
614,54012,117.63,44.57,1001.0,内蒙古自治区,锡林郭勒盟,西乌珠穆沁旗
615,54024,119.3,44.45,710.0,内蒙古自治区,赤峰市,巴林左旗
616,54026,120.9,44.57,265.0,内蒙古自治区,通辽市,扎鲁特旗
617,54027,119.32,43.96,587.0,内蒙古自治区,赤峰市,巴林左旗
618,54031,121.82,44.9,198.0,内蒙古自治区,兴安盟,科尔沁右翼中旗
619,54039,122.02,44.03,181.0,内蒙古自治区,通辽市,科尔沁左翼中旗
620,54041,123.07,44.8,150.0,吉林省,白城市,通榆县
621,54047,123.25,44.09,141.0,内蒙古自治区,通辽市,科尔沁左翼中旗
622,54049,123.97,44.25,188.0,吉林省,松原市,长岭县
623,54063,126.0,44.97,196.0,吉林省,松原市,扶余市
624,54064,125.15,44.38,170.0,吉林省,长春市,农安县
625,54065,125.65,44.53,169.0,吉林省,长春市,德惠市
626,54069,125.8,44.12,173.0,吉林省,长春市,九台市
627,54072,126.52,44.85,196.0,吉林省,长春市,榆树市
628,54076,126.93,44.38,268.0,吉林省,吉林市,舒兰市
629,54080,127.15,44.9,194.0,黑龙江省,哈尔滨市,五常市
630,54084,127.6,44.73,331.0,黑龙江省,哈尔滨市,五常市
631,54092,129.4,44.6,292.0,黑龙江省,牡丹江市,海林市
632,54093,130.55,44.93,266.0,黑龙江省,牡丹江市,穆棱市
633,54094,129.67,44.5,305.0,黑龙江省,牡丹江市,东安区
634,54096,131.18,44.39,567.0,黑龙江省,牡丹江市,绥芬河市
635,54098,129.47,44.33,267.0,黑龙江省,牡丹江市,宁安市
636,54099,131.11,44.09,175.0,黑龙江省,牡丹江市,东宁县
637,54102,116.12,43.95,1003.0,内蒙古自治区,锡林郭勒盟,锡林浩特市
638,54113,118.63,43.53,688.0,内蒙古自治区,赤峰市,巴林右旗
639,54115,118.03,43.63,825.0,内蒙古自治区,赤峰市,林西县
640,54117,117.53,43.25,1003.0,内蒙古自治区,赤峰市,克什克腾旗
641,54122,120.03,43.86,428.0,内蒙古自治区,赤峰市,阿鲁科尔沁旗
642,54132,121.07,42.4,400.0,内蒙古自治区,通辽市,奈曼旗
643,54134,121.28,43.6,241.0,内蒙古自治区,通辽市,开鲁县
644,54135,122.27,43.6,178.0,内蒙古自治区,通辽市,科尔沁区
645,54142,123.44,43.51,117.0,吉林省,四平市,双辽市
646,54154,124.3,43.35,160.0,吉林省,四平市,梨树县
647,54155,124.23,43.67,144.0,吉林省,四平市,梨树县
648,54156,124.8,43.52,200.0,吉林省,四平市,公主岭市
649,54157,124.39,43.12,179.0,吉林省,四平市,铁东区
650,54161,125.22,43.9,236.0,吉林省,长春市,绿园区
651,54164,125.28,43.35,248.0,吉林省,四平市,伊通满族自治县
652,54165,125.63,43.55,219.0,吉林省,长春市,双阳区
653,54169,126.02,43.3,271.0,吉林省,吉林市,磐石市
654,54171,126.52,43.7,229.0,吉林省,吉林市,永吉县
655,54172,126.53,43.87,290.0,吉林省,吉林市,船营区
656,54175,126.62,43.42,537.0,吉林省,吉林市,永吉县
657,54181,127.33,43.7,295.0,吉林省,吉林市,蛟河市
658,54186,128.2,43.37,524.0,吉林省,延边朝鲜族自治州,敦化市
659,54187,128.92,43.12,366.0,吉林省,延边朝鲜族自治州,安图县
660,54192,130.27,43.71,384.0,吉林省,延边朝鲜族自治州,汪清县
661,54195,129.78,43.3,244.0,吉林省,延边朝鲜族自治州,汪清县
662,54204,115.03,42.28,1366.0,内蒙古自治区,锡林郭勒盟,正镶白旗
663,54205,116.0,42.23,1315.0,内蒙古自治区,锡林郭勒盟,正蓝旗
664,54208,116.47,42.19,1245.0,内蒙古自治区,锡林郭勒盟,多伦县
665,54213,119.02,42.93,634.0,内蒙古自治区,赤峰市,翁牛特旗
666,54214,118.42,42.58,960.0,内蒙古自治区,赤峰市,松山区
667,54218,118.83,42.31,668.0,内蒙古自治区,赤峰市,松山区
668,54223,120.65,42.85,362.0,内蒙古自治区,通辽市,奈曼旗
669,54225,119.94,42.29,579.0,内蒙古自治区,赤峰市,敖汉旗
670,54226,120.7,42.33,400.0,内蒙古自治区,赤峰市,敖汉旗
671,54231,122.37,42.92,256.0,内蒙古自治区,通辽市,科尔沁左翼后旗
672,54234,121.79,42.72,278.0,内蒙古自治区,通辽市,库伦旗
673,54236,122.55,42.38,79.0,辽宁省,阜新市,彰武县
674,54237,121.75,42.07,167.0,辽宁省,阜新市,阜新蒙古族自治县
675,54243,124.09,42.78,165.0,辽宁省,铁岭市,昌图县
676,54244,123.35,42.81,87.0,辽宁省,沈阳市,康平县
677,54245,123.4,42.49,97.0,辽宁省,沈阳市,法库县
678,54248,123.53,42.04,61.0,辽宁省,沈阳市,沈北新区
679,54249,123.86,42.3,85.0,辽宁省,铁岭市,银州区
680,54252,124.74,42.74,196.0,辽宁省,铁岭市,西丰县
681,54254,124.05,42.53,98.0,辽宁省,铁岭市,开原市
682,54259,124.87,42.07,224.0,辽宁省,抚顺市,清原满族自治县
683,54260,125.08,42.92,252.0,吉林省,辽源市,东辽县
684,54261,125.47,42.67,345.0,吉林省,辽源市,东丰县
685,54263,126.08,42.96,351.0,吉林省,吉林市,磐石市
686,54266,125.63,42.53,340.0,吉林省,通化市,梅河口市
687,54267,125.73,42.25,362.0,吉林省,通化市,柳河县
688,54273,126.75,42.98,263.0,吉林省,吉林市,桦甸市
689,54274,125.99,42.69,306.0,吉林省,通化市,梅河口市
690,54276,126.8,42.4,570.0,吉林省,白山市,靖宇县
691,54279,126.58,42.05,544.0,吉林省,白山市,江源区
692,54284,127.5,42.15,774.0,吉林省,白山市,抚松县
693,54285,128.12,42.4,731.0,吉林省,延边朝鲜族自治州,安图县
694,54286,129.0,42.53,475.0,吉林省,延边朝鲜族自治州,和龙市
695,54287,128.08,42.02,2623.0,,,
696,54288,127.38,42.26,731.0,吉林省,白山市,抚松县
697,54290,129.4,42.77,241.0,吉林省,延边朝鲜族自治州,龙井市
698,54291,130.35,42.79,43.0,吉林省,延边朝鲜族自治州,珲春市
699,54292,129.5,42.87,257.0,吉林省,延边朝鲜族自治州,延吉市
700,54293,129.83,42.95,142.0,吉林省,延边朝鲜族自治州,图们市
701,54301,115.65,41.67,1411.0,河北省,张家口市,沽源县
702,54304,115.27,40.95,1239.0,河北省,张家口市,崇礼县
703,54305,115.27,41.88,1468.0,内蒙古自治区,锡林郭勒盟,太仆寺旗
704,54308,116.63,41.2,735.0,河北省,承德市,丰宁满族自治县
705,54311,117.77,41.97,892.0,河北省,承德市,围场满族蒙古族自治县
706,54313,118.7,41.93,733.0,内蒙古自治区,赤峰市,喀喇沁旗
707,54316,118.75,41.52,679.0,内蒙古自治区,赤峰市,宁城县
708,54318,117.73,41.34,599.0,河北省,承德市,隆化县
709,54319,118.67,41.01,546.0,河北省,承德市,平泉县
710,54320,119.3,41.6,544.0,内蒙古自治区,赤峰市,宁城县
711,54321,119.71,41.9,661.0,辽宁省,朝阳市,建平县
712,54323,120.79,41.81,253.0,辽宁省,朝阳市,北票市
713,54324,120.43,41.55,174.0,辽宁省,朝阳市,朝阳县
714,54325,120.36,41.18,183.0,辽宁省,朝阳市,朝阳县
715,54326,119.62,41.41,462.0,辽宁省,朝阳市,建平县
716,54327,119.39,41.24,417.0,辽宁省,朝阳市,凌源市
717,54328,119.77,41.12,341.0,辽宁省,朝阳市,喀喇沁左翼蒙古族自治县
718,54330,121.34,41.14,45.0,辽宁省,锦州市,凌海市
719,54331,121.76,41.6,113.0,辽宁省,锦州市,北镇市
720,54332,122.7,41.51,12.0,辽宁省,沈阳市,辽中县
721,54333,122.85,41.96,30.0,辽宁省,沈阳市,新民市
722,54334,121.24,41.51,74.0,辽宁省,锦州市,义县
723,54335,122.09,41.69,37.0,辽宁省,锦州市,黑山县
724,54336,122.43,41.42,8.0,辽宁省,鞍山市,台安县
725,54337,121.12,41.14,65.0,辽宁省,锦州市,古塔区
726,54338,122.04,41.27,4.0,辽宁省,盘锦市,盘山县
727,54339,123.0,41.09,77.0,辽宁省,鞍山市,铁东区
728,54340,123.32,41.66,35.0,辽宁省,沈阳市,苏家屯区
729,54342,123.51,41.73,51.0,辽宁省,沈阳市,东陵区
730,54345,123.07,41.2,30.0,辽宁省,辽阳市,辽阳县
731,54346,123.78,41.31,185.0,辽宁省,本溪市,明山区
732,54347,123.18,41.24,24.0,辽宁省,辽阳市,宏伟区
733,54348,123.37,41.41,45.0,辽宁省,辽阳市,灯塔市
734,54349,124.13,41.3,258.0,辽宁省,本溪市,本溪满族自治县
735,54351,124.07,41.91,118.0,辽宁省,抚顺市,抚顺县
736,54353,125.04,41.72,328.0,辽宁省,抚顺市,新宾满族自治县
737,54362,125.73,41.67,380.0,吉林省,通化市,通化县
738,54363,125.9,41.68,402.0,吉林省,通化市,东昌区
739,54365,125.34,41.28,245.0,辽宁省,本溪市,桓仁满族自治县
740,54371,126.43,41.93,520.0,吉林省,白山市,浑江区
741,54374,126.88,41.8,379.0,吉林省,白山市,临江市
742,54377,126.22,41.15,225.0,吉林省,通化市,集安市
743,54386,128.18,41.42,775.0,吉林省,白山市,长白朝鲜族自治县
744,54398,116.62,40.13,28.0,北京市,北京市,顺义区
745,54399,116.28,39.98,45.0,北京市,北京市,海淀区
746,54401,114.92,40.77,772.0,河北省,张家口市,桥东区
747,54404,115.83,40.88,867.0,河北省,张家口市,赤城县
748,54405,115.5,40.42,570.0,河北省,张家口市,怀来县
749,54406,115.97,40.45,487.0,北京市,北京市,延庆县
750,54408,115.22,40.38,529.0,河北省,张家口市,涿鹿县
751,54410,116.13,40.6,1224.0,北京市,北京市,延庆县
752,54412,116.63,40.73,331.0,北京市,北京市,怀柔区
753,54416,116.87,40.38,71.0,北京市,北京市,密云县
754,54419,116.63,40.37,75.0,北京市,北京市,怀柔区
755,54420,117.33,40.93,529.0,河北省,承德市,滦平县
756,54421,117.12,40.65,293.0,北京市,北京市,密云县
757,54423,117.92,40.97,422.0,河北省,承德市,双桥区
758,54424,117.12,40.17,32.0,北京市,北京市,平谷区
759,54425,117.47,40.4,633.0,河北省,承德市,兴隆县
760,54428,117.45,40.05,32.0,天津市,天津市,蓟县
761,54429,117.95,40.2,54.0,河北省,唐山市,遵化市
762,54430,118.21,40.78,330.0,河北省,承德市,承德县
763,54431,116.75,39.85,19.0,北京市,北京市,通州区
764,54432,118.47,40.61,369.0,河北省,承德市,宽城满族自治县
765,54433,116.5,39.95,35.0,北京市,北京市,朝阳区
766,54434,118.33,40.17,131.0,河北省,唐山市,迁西县
767,54436,118.95,40.42,254.0,河北省,秦皇岛市,青龙满族自治县
768,54437,118.62,39.51,18.0,河北省,唐山市,滦南县
769,54438,118.88,39.88,65.0,河北省,秦皇岛市,卢龙县
770,54439,118.71,40.02,50.0,河北省,唐山市,迁安市
771,54449,119.52,39.85,2.0,河北省,秦皇岛市,北戴河区
772,54452,119.79,40.8,367.0,辽宁省,葫芦岛市,建昌县
773,54453,120.96,40.87,38.0,辽宁省,葫芦岛市,连山区
774,54454,120.31,40.33,29.0,辽宁省,葫芦岛市,绥中县
775,54455,120.65,40.62,20.0,辽宁省,葫芦岛市,兴城市
776,54456,120.8,40.5,39.0,辽宁省,葫芦岛市,兴城市
777,54458,120.44,40.2,4.0,辽宁省,葫芦岛市,绥中县
778,54470,122.06,41.01,5.0,辽宁省,盘锦市,大洼县
779,54471,122.17,40.67,3.0,辽宁省,营口市,西市区
780,54472,122.75,40.88,25.0,辽宁省,鞍山市,海城市
781,54474,122.36,40.41,24.0,辽宁省,营口市,盖州市
782,54475,122.45,40.56,11.0,辽宁省,营口市,盖州市
783,54476,122.15,40.18,20.0,辽宁省,营口市,鲅鱼圈区
784,54481,123.37,40.74,239.0,辽宁省,鞍山市,岫岩满族自治县
785,54483,123.9,40.87,233.0,辽宁省,本溪市,本溪满族自治县
786,54486,123.28,40.34,97.0,辽宁省,鞍山市,岫岩满族自治县
787,54493,124.78,40.72,260.0,辽宁省,丹东市,宽甸满族自治县
788,54494,124.05,40.47,72.0,辽宁省,丹东市,凤城市
789,54497,124.33,40.03,13.0,辽宁省,丹东市,振兴区
790,54499,116.22,40.22,76.0,北京市,北京市,昌平区
791,54501,115.68,39.97,440.0,北京市,北京市,门头沟区
792,54502,116.03,39.48,29.0,河北省,保定市,涿州市
793,54503,115.82,39.07,12.0,河北省,保定市,容城县
794,54505,116.15,39.88,85.0,北京市,北京市,丰台区
795,54506,115.95,39.32,24.0,河北省,保定市,高碑店市
796,54507,115.52,39.33,49.0,河北省,保定市,易县
797,54510,116.95,39.91,18.0,河北省,廊坊市,大厂回族自治县
798,54511,116.47,39.8,31.0,北京市,北京市,大兴区
799,54512,116.28,39.42,21.0,河北省,廊坊市,固安县
800,54513,116.21,39.94,63.0,北京市,北京市,石景山区
801,54514,116.25,39.87,55.0,北京市,北京市,丰台区
802,54515,116.7,39.5,13.0,河北省,廊坊市,安次区
803,54518,116.39,39.17,8.0,河北省,廊坊市,霸州市
804,54519,116.48,39.3,12.0,河北省,廊坊市,永清县
805,54520,117.08,39.97,18.0,河北省,廊坊市,三河市
806,54521,116.99,39.69,9.0,河北省,廊坊市,香河县
807,54522,117.74,39.91,17.0,河北省,唐山市,玉田县
808,54523,117.06,39.43,8.0,天津市,天津市,武清区
809,54525,117.28,39.73,5.0,天津市,天津市,宝坻区
810,54526,117.34,39.08,1.0,天津市,天津市,东丽区
811,54527,117.05,39.08,3.0,天津市,天津市,西青区
812,54528,117.14,39.24,3.0,天津市,天津市,北辰区
813,54529,117.85,39.38,3.0,河北省,唐山市,丰南区
814,54530,117.78,39.23,1.0,天津市,天津市,滨海新区
815,54531,118.72,39.73,43.0,河北省,唐山市,滦县
816,54532,118.08,39.81,31.0,河北省,唐山市,丰润区
817,54533,118.09,39.58,8.0,河北省,唐山市,丰南区
818,54534,118.1,39.65,23.0,河北省,唐山市,路北区
819,54535,118.47,39.29,3.0,河北省,唐山市,曹妃甸区
820,54539,118.89,39.43,8.0,河北省,唐山市,乐亭县
821,54540,119.2,39.73,17.0,河北省,秦皇岛市,昌黎县
822,54541,119.23,39.9,24.0,河北省,秦皇岛市,抚宁县
823,54558,120.45,36.1,0.0,山东省,青岛市,崂山区
824,54563,122.01,39.63,118.0,辽宁省,大连市,瓦房店市
825,54565,121.47,39.6,70.0,辽宁省,大连市,瓦房店市
826,54568,121.76,39.06,90.0,辽宁省,大连市,金州区
827,54569,121.94,39.42,11.0,辽宁省,大连市,普兰店市
828,54575,122.34,39.4,43.0,辽宁省,大连市,普兰店市
829,54576,122.97,39.53,48.0,辽宁省,大连市,庄河市
830,54578,122.71,39.04,57.0,辽宁省,大连市,长海县
831,54579,122.59,39.27,35.0,辽宁省,大连市,长海县
832,54583,123.75,39.75,70.0,辽宁省,丹东市,东港市
833,54584,122.95,39.71,34.0,辽宁省,大连市,庄河市
834,54590,124.15,39.92,3.0,辽宁省,丹东市,东港市
835,54594,116.35,39.72,37.0,北京市,北京市,大兴区
836,54596,116.19,39.77,48.0,北京市,北京市,房山区
837,54597,115.74,39.73,407.0,北京市,北京市,房山区
838,54601,115.64,38.98,13.0,河北省,保定市,徐水县
839,54602,115.48,38.73,16.0,河北省,保定市,清苑县
840,54603,115.77,38.71,10.0,河北省,保定市,高阳县
841,54604,115.29,38.4,31.0,河北省,保定市,安国市
842,54605,115.88,38.93,4.0,河北省,保定市,安新县
843,54606,115.74,38.22,17.0,河北省,衡水市,饶阳县
844,54607,115.11,38.7,47.0,河北省,保定市,望都县
845,54608,115.55,38.0,26.0,河北省,衡水市,深州市
846,54609,115.59,38.23,22.0,河北省,衡水市,安平县
847,54610,116.1,38.73,8.0,河北省,沧州市,任丘市
848,54611,115.32,38.93,44.0,河北省,保定市,满城县
849,54612,116.46,38.85,4.0,河北省,廊坊市,文安县
850,54613,116.62,38.7,6.0,河北省,廊坊市,大城县
851,54614,116.06,38.42,10.0,河北省,沧州市,河间市
852,54615,116.85,38.58,8.0,河北省,沧州市,青县
853,54616,116.85,38.35,8.0,河北省,沧州市,运河区
854,54617,116.17,38.21,13.0,河北省,沧州市,献县
855,54618,116.55,38.08,13.0,河北省,沧州市,泊头市
856,54619,116.92,38.92,5.0,天津市,天津市,静海县
857,54620,115.57,38.48,18.0,河北省,保定市,蠡县
858,54621,115.18,38.18,38.0,河北省,石家庄市,深泽县
859,54622,117.42,38.95,1.0,天津市,天津市,津南区
860,54623,117.72,39.04,4.0,天津市,天津市,滨海新区
861,54624,117.32,38.41,4.0,河北省,沧州市,黄骅市
862,54626,115.82,38.42,13.0,河北省,沧州市,肃宁县
863,54627,117.23,38.03,8.0,河北省,沧州市,盐山县
864,54628,117.41,38.08,5.0,河北省,沧州市,海兴县
865,54631,115.15,37.07,32.0,河北省,邢台市,广宗县
866,54632,115.03,37.07,34.0,河北省,邢台市,平乡县
867,54633,115.27,37.51,26.0,河北省,邢台市,新河县
868,54636,116.12,39.02,10.0,河北省,保定市,雄县
869,54640,114.87,36.89,36.0,河北省,邯郸市,鸡泽县
870,54644,117.12,38.06,10.0,河北省,沧州市,孟村回族自治县
871,54645,117.47,38.84,2.0,天津市,天津市,滨海新区
872,54646,118.42,38.45,30.0,,,
873,54653,120.98,38.95,215.0,辽宁省,大连市,旅顺口区
874,54660,121.24,38.81,66.0,辽宁省,大连市,旅顺口区
875,54661,121.14,38.91,0.0,辽宁省,大连市,旅顺口区
876,54662,121.64,38.91,91.0,辽宁省,大连市,西岗区
877,54663,122.91,38.99,3.0,,,
878,54664,121.15,38.74,96.0,辽宁省,大连市,旅顺口区
879,54700,115.93,38.03,16.0,河北省,衡水市,武强县
880,54701,115.2,37.93,35.0,河北省,石家庄市,辛集市
881,54702,115.7,37.73,20.0,河北省,衡水市,桃城区
882,54703,115.9,37.79,20.0,河北省,衡水市,武邑县
883,54704,115.56,37.51,24.0,河北省,衡水市,冀州市
884,54705,115.38,37.37,27.0,河北省,邢台市,南宫市
885,54706,115.67,37.08,31.0,河北省,邢台市,清河县
886,54707,115.98,37.35,27.0,河北省,衡水市,故城县
887,54708,115.73,37.5,23.0,河北省,衡水市,枣强县
888,54709,116.07,37.23,24.0,山东省,德州市,武城县
889,54710,116.17,37.87,18.0,河北省,衡水市,阜城县
890,54711,116.26,37.67,15.0,河北省,衡水市,景县
891,54712,116.82,37.2,18.0,山东省,德州市,临邑县
892,54713,116.53,37.88,14.0,河北省,沧州市,东光县
893,54714,116.33,37.35,25.0,山东省,德州市,德城区
894,54715,116.52,37.32,17.0,山东省,德州市,陵县
895,54716,116.8,37.67,17.0,山东省,德州市,宁津县
896,54717,116.4,37.63,17.0,河北省,沧州市,吴桥县
897,54718,116.47,37.15,22.0,山东省,德州市,平原县
898,54719,116.68,38.01,10.0,河北省,沧州市,南皮县
899,54722,117.63,37.75,6.0,山东省,滨州市,无棣县
900,54723,117.57,37.65,10.0,山东省,滨州市,阳信县
901,54724,117.13,37.32,14.0,山东省,济南市,商河县
902,54725,117.53,37.5,11.0,山东省,滨州市,惠民县
903,54726,117.18,37.7,11.0,山东省,德州市,乐陵市
904,54727,117.52,36.65,263.0,山东省,济南市,章丘市
905,54728,117.35,37.77,10.0,山东省,德州市,庆云县
906,54729,117.87,37.17,11.0,山东省,淄博市,高青县
907,54730,118.13,37.7,6.0,山东省,滨州市,沾化县
908,54731,118.22,37.48,11.0,山东省,东营市,利津县
909,54732,118.52,37.87,5.0,山东省,东营市,河口区
910,54733,118.63,38.03,1.0,山东省,东营市,河口区
911,54734,118.03,37.35,17.0,山东省,滨州市,滨城区
912,54736,118.67,37.43,6.0,山东省,东营市,东营区
913,54737,118.15,37.15,9.0,山东省,滨州市,博兴县
914,54738,118.37,37.05,14.0,山东省,东营市,广饶县
915,54740,118.79,38.24,57.0,,,
916,54741,118.81,38.22,39.0,,,
917,54744,118.55,37.58,8.0,山东省,东营市,垦利县
918,54747,118.99,38.26,10.0,,,
919,54749,119.95,37.18,48.0,山东省,烟台市,莱州市
920,54751,120.73,37.94,39.0,山东省,烟台市,长岛县
921,54752,120.77,37.8,60.0,山东省,烟台市,蓬莱市
922,54753,120.33,37.63,4.0,山东省,烟台市,龙口市
923,54755,120.38,37.33,117.0,山东省,烟台市,招远市
924,54759,120.85,37.32,205.0,山东省,烟台市,栖霞市
925,54761,121.48,37.57,7.0,山东省,烟台市,芝罘区
926,54762,121.43,37.61,0.0,山东省,烟台市,芝罘区
927,54764,121.23,37.48,53.0,山东省,烟台市,福山区
928,54765,121.43,37.48,82.0,山东省,烟台市,莱山区
929,54766,121.58,37.43,39.0,山东省,烟台市,牟平区
930,54772,122.55,37.5,0.0,,,
931,54774,122.13,37.47,65.0,山东省,威海市,环翠区
932,54776,122.7,37.4,47.0,山东省,威海市,荣成市
933,54777,122.07,37.2,118.0,山东省,威海市,文登市
934,54778,122.48,37.17,61.0,山东省,威海市,荣成市
935,54800,115.25,37.0,33.0,河北省,邢台市,广宗县
936,54801,115.48,36.85,35.0,河北省,邢台市,临西县
937,54802,115.73,36.82,34.0,山东省,聊城市,临清市
938,54803,116.02,36.98,27.0,山东省,德州市,夏津县
939,54804,115.18,36.3,45.0,河北省,邯郸市,大名县
940,54805,115.47,36.45,39.0,山东省,聊城市,冠县
941,54806,115.97,36.42,33.0,山东省,聊城市,东昌府区
942,54807,115.77,36.15,41.0,山东省,聊城市,阳谷县
943,54808,115.63,36.22,38.0,山东省,聊城市,莘县
944,54809,115.28,36.55,41.0,河北省,邯郸市,馆陶县
945,54810,116.27,36.87,27.0,山东省,聊城市,高唐县
946,54811,116.62,36.93,20.0,山东省,德州市,禹城市
947,54812,116.72,36.73,24.0,山东省,德州市,齐河县
948,54814,116.25,36.53,29.0,山东省,聊城市,茌平县
949,54815,116.27,36.38,31.0,山东省,聊城市,东阿县
950,54816,116.8,36.52,98.0,山东省,济南市,长清区
951,54817,115.86,35.98,42.0,河南省,濮阳市,台前县
952,54818,116.42,36.25,79.0,山东省,济南市,平阴县
953,54819,116.8,36.18,113.0,山东省,泰安市,肥城市
954,54820,115.21,36.81,39.0,河北省,邯郸市,邱县
955,54821,117.2,37.0,20.0,山东省,济南市,济阳县
956,54822,117.73,36.87,47.0,山东省,滨州市,邹平县
957,54823,117.01,36.6,170.0,山东省,济南市,市中区
958,54824,117.95,36.63,95.0,山东省,淄博市,淄川区
959,54825,117.85,36.52,189.0,山东省,淄博市,博山区
960,54826,117.1,36.25,1533.0,山东省,泰安市,泰山区
961,54827,117.15,36.17,128.0,山东省,泰安市,泰山区
962,54828,117.68,36.23,229.0,山东省,莱芜市,莱城区
963,54829,117.87,36.77,85.0,山东省,淄博市,周村区
964,54830,117.93,36.82,34.0,山东省,淄博市,周村区
965,54831,118.5,36.65,102.0,山东省,潍坊市,青州市
966,54832,118.8,36.87,23.0,山东省,潍坊市,寿光市
967,54833,118.08,36.97,15.0,山东省,淄博市,桓台县
968,54834,118.28,36.87,46.0,山东省,淄博市,临淄区
969,54835,118.57,36.47,149.0,山东省,潍坊市,临朐县
970,54836,118.17,36.18,305.0,山东省,淄博市,沂源县
971,54837,118.83,36.68,78.0,山东省,潍坊市,昌乐县
972,54841,119.42,36.87,23.0,山东省,潍坊市,昌邑市
973,54842,120.0,36.78,62.0,山东省,青岛市,平度市
974,54843,119.2,36.75,22.0,山东省,潍坊市,寒亭区
975,54844,119.18,36.42,62.0,山东省,潍坊市,安丘市
976,54846,119.73,36.38,51.0,山东省,潍坊市,高密市
977,54848,119.48,35.97,109.0,山东省,潍坊市,诸城市
978,54849,120.03,36.22,84.0,山东省,青岛市,胶州市
979,54851,120.57,36.9,76.0,山东省,青岛市,莱西市
980,54852,120.72,36.97,41.0,山东省,烟台市,莱阳市
981,54853,120.52,36.13,54.0,山东省,青岛市,崂山区
982,54855,120.38,36.4,47.0,山东省,青岛市,即墨市
983,54857,120.33,36.07,76.0,山东省,青岛市,市南区
984,54859,120.45,36.1,0.0,山东省,青岛市,崂山区
985,54861,121.53,36.93,45.0,山东省,威海市,乳山市
986,54863,121.18,36.78,40.0,山东省,烟台市,海阳市
987,54871,122.48,36.93,9.0,山东省,威海市,荣成市
988,54900,115.03,35.7,53.0,河南省,濮阳市,濮阳县
989,54901,115.24,36.06,46.0,河南省,濮阳市,南乐县
990,54902,115.14,35.94,49.0,河南省,濮阳市,清丰县
991,54903,115.48,35.85,46.0,河南省,濮阳市,范县
992,54904,115.52,35.58,50.0,山东省,菏泽市,鄄城县
993,54905,115.93,35.58,46.0,山东省,菏泽市,郓城县
994,54906,115.53,35.32,50.0,山东省,菏泽市,牡丹区
995,54907,116.65,34.98,34.0,山东省,济宁市,鱼台县
996,54908,115.1,35.27,57.0,山东省,菏泽市,东明县
997,54909,115.52,35.08,51.0,山东省,菏泽市,定陶县
998,54910,116.05,35.82,40.0,山东省,济宁市,梁山县
999,54911,116.4,35.93,44.0,山东省,泰安市,东平县
1000,54912,116.5,35.77,41.0,山东省,济宁市,汶上县
1001,54913,116.81,35.8,67.0,山东省,泰安市,宁阳县
1002,54914,116.08,35.42,40.0,山东省,菏泽市,巨野县
1003,54915,116.6,35.44,33.0,山东省,济宁市,任城区
1004,54916,116.85,35.57,51.0,山东省,济宁市,兖州市
1005,54917,116.33,35.13,35.0,山东省,济宁市,金乡县
1006,54918,116.97,35.6,62.0,山东省,济宁市,曲阜市
1007,54919,116.98,35.38,89.0,山东省,济宁市,邹城市
1008,54920,117.29,35.66,110.0,山东省,济宁市,泗水县
1009,54921,116.28,35.43,37.0,山东省,济宁市,嘉祥县
1010,54922,117.75,35.87,206.0,山东省,泰安市,新泰市
1011,54923,117.95,35.73,286.0,山东省,临沂市,蒙阴县
1012,54925,117.68,35.5,161.0,山东省,临沂市,平邑县
1013,54927,117.2,35.1,74.0,山东省,枣庄市,滕州市
1014,54929,117.97,35.27,121.0,山东省,临沂市,费县
1015,54932,118.65,35.77,186.0,山东省,临沂市,沂水县
1016,54935,118.43,35.53,119.0,山东省,临沂市,沂南县
1017,54936,118.83,35.57,107.0,山东省,日照市,莒县
1018,54938,118.42,35.25,124.0,山东省,临沂市,兰山区
1019,54939,118.82,35.17,113.0,山东省,临沂市,莒南县
1020,54940,119.2,35.75,148.0,山东省,日照市,五莲县
1021,54943,120.0,35.88,10.0,山东省,青岛市,黄岛区
1022,54945,119.55,35.47,64.0,山东省,日照市,东港区
1023,54946,119.59,35.42,0.0,山东省,日照市,东港区
1024,55026,80.4,34.42,9999.0,西藏自治区,阿里地区,日土县
1025,55178,88.84,33.2,4933.0,西藏自治区,那曲地区,尼玛县
1026,55228,80.08,32.5,4278.0,西藏自治区,阿里地区,噶尔县
1027,55248,84.42,32.15,4414.0,西藏自治区,阿里地区,改则县
1028,55279,90.02,31.38,4700.0,西藏自治区,那曲地区,班戈县
1029,55294,91.1,32.35,4800.0,西藏自治区,那曲地区,安多县
1030,55299,92.07,31.48,4507.0,西藏自治区,那曲地区,那曲县
1031,55437,81.25,30.28,3900.0,西藏自治区,阿里地区,普兰县
1032,55472,88.64,30.96,4672.0,西藏自治区,那曲地区,申扎县
1033,55493,91.1,30.48,4200.0,西藏自治区,拉萨市,当雄县
1034,55569,87.6,29.08,4000.0,西藏自治区,日喀则地区,拉孜县
1035,55572,89.1,29.68,4000.0,西藏自治区,日喀则地区,南木林县
1036,55578,88.88,29.25,3836.0,西藏自治区,日喀则地区,日喀则市
1037,55585,90.17,29.45,3807.0,西藏自治区,拉萨市,尼木县
1038,55589,90.97,29.3,3564.0,西藏自治区,山南地区,贡嘎县
1039,55591,91.13,29.67,3648.0,西藏自治区,拉萨市,城关区
1040,55593,91.73,29.85,3804.0,西藏自治区,拉萨市,墨竹工卡县
1041,55597,91.68,29.03,3740.0,西藏自治区,山南地区,琼结县
1042,55598,91.77,29.27,3560.0,西藏自治区,山南地区,乃东县
1043,55655,85.97,28.19,3810.0,西藏自治区,日喀则地区,聂拉木县
1044,55664,87.08,28.63,4300.0,西藏自治区,日喀则地区,定日县
1045,55680,89.6,28.92,4040.0,西藏自治区,日喀则地区,江孜县
1046,55681,90.4,28.97,4431.0,西藏自治区,山南地区,浪卡子县
1047,55690,91.95,27.98,4280.0,西藏自治区,山南地区,错那县
1048,55696,92.47,28.42,3860.0,西藏自治区,山南地区,隆子县
1049,55773,89.08,27.73,4300.0,西藏自治区,日喀则地区,亚东县
1050,56004,92.43,34.22,4533.0,青海省,海西蒙古族藏族自治州,格尔木市
1051,56016,95.62,33.85,4179.0,青海省,玉树藏族自治州,治多县
1052,56018,95.28,32.88,4066.0,青海省,玉树藏族自治州,杂多县
1053,56021,95.81,34.13,4175.0,青海省,玉树藏族自治州,曲麻莱县
1054,56029,96.96,33.0,3716.0,青海省,玉树藏族自治州,玉树县
1055,56033,98.22,34.92,4272.0,青海省,果洛藏族自治州,玛多县
1056,56034,97.13,33.8,4415.0,青海省,玉树藏族自治州,称多县
1057,56038,98.1,32.98,4200.0,四川省,甘孜藏族自治州,石渠县
1058,56043,100.23,34.48,3719.0,青海省,果洛藏族自治州,玛沁县
1059,56045,99.9,33.97,4050.0,青海省,果洛藏族自治州,甘德县
1060,56046,99.65,33.75,3967.0,青海省,果洛藏族自治州,达日县
1061,56065,101.6,34.73,3500.0,青海省,黄南藏族自治州,河南蒙古族自治县
1062,56067,101.48,33.43,3628.0,青海省,果洛藏族自治州,久治县
1063,56071,102.5,34.59,3190.0,甘肃省,甘南藏族自治州,碌曲县
1064,56074,102.08,34.0,3471.0,甘肃省,甘南藏族自治州,玛曲县
1065,56079,102.97,33.58,3441.0,四川省,阿坝藏族羌族自治州,若尔盖县
1066,56080,102.9,34.99,2909.0,甘肃省,甘南藏族自治州,合作市
1067,56081,103.35,34.7,2810.0,甘肃省,甘南藏族自治州,临潭县
1068,56082,103.5,34.59,2592.0,甘肃省,甘南藏族自治州,卓尼县
1069,56084,103.23,34.06,2374.0,甘肃省,甘南藏族自治州,迭部县
1070,56091,104.46,34.84,1910.0,甘肃省,定西市,漳县
1071,56092,104.65,34.99,1728.0,甘肃省,定西市,陇西县
1072,56093,104.02,34.43,2315.0,甘肃省,定西市,岷县
1073,56094,104.37,33.78,1329.0,甘肃省,甘南藏族自治州,舟曲县
1074,56095,104.38,34.03,1753.0,甘肃省,陇南市,宕昌县
1075,56096,104.92,33.4,1079.0,甘肃省,陇南市,武都区
1076,56097,104.25,33.26,1440.0,四川省,阿坝藏族羌族自治州,九寨沟县
1077,56106,93.78,31.88,4022.0,西藏自治区,那曲地区,索县
1078,56109,93.78,31.48,3940.0,西藏自治区,那曲地区,比如县
1079,56116,95.6,31.42,3873.0,西藏自治区,昌都地区,丁青县
1080,56125,96.47,32.2,3643.0,青海省,玉树藏族自治州,囊谦县
1081,56128,96.6,31.22,3810.0,西藏自治区,昌都地区,类乌齐县
1082,56137,97.17,31.15,3315.0,西藏自治区,昌都地区,昌都县
1083,56144,98.58,31.8,3184.0,四川省,甘孜藏族自治州,德格县
1084,56146,100.0,31.62,3393.0,四川省,甘孜藏族自治州,甘孜县
1085,56147,98.83,31.22,3260.0,四川省,甘孜藏族自治州,白玉县
1086,56151,100.75,32.93,3530.0,青海省,果洛藏族自治州,班玛县
1087,56152,100.33,32.28,3893.0,四川省,甘孜藏族自治州,色达县
1088,56158,100.66,31.39,3414.0,四川省,甘孜藏族自治州,炉霍县
1089,56164,100.96,32.27,3292.0,四川省,阿坝藏族羌族自治州,壤塘县
1090,56167,101.12,30.97,3008.0,四川省,甘孜藏族自治州,道孚县
1091,56168,102.07,31.48,2168.0,四川省,阿坝藏族羌族自治州,金川县
1092,56171,101.7,32.9,3275.0,四川省,阿坝藏族羌族自治州,阿坝县
1093,56172,102.23,31.9,2664.0,四川省,阿坝藏族羌族自治州,马尔康县
1094,56173,102.55,32.8,3491.0,四川省,阿坝藏族羌族自治州,红原县
1095,56178,102.36,31.0,2438.0,四川省,阿坝藏族羌族自治州,小金县
1096,56180,103.85,31.68,1590.0,四川省,阿坝藏族羌族自治州,茂县
1097,56181,103.7,30.68,541.0,四川省,成都市,崇州市
1098,56182,103.6,32.67,2881.0,四川省,阿坝藏族羌族自治州,松潘县
1099,56183,103.62,31.5,1370.0,四川省,阿坝藏族羌族自治州,汶川县
1100,56184,103.17,31.44,1896.0,四川省,阿坝藏族羌族自治州,理县
1101,56185,102.98,32.08,2400.0,四川省,阿坝藏族羌族自治州,黑水县
1102,56186,104.2,31.33,589.0,四川省,德阳市,绵竹市
1103,56187,103.86,30.75,547.0,四川省,成都市,温江区
1104,56188,103.67,31.0,689.0,四川省,成都市,都江堰市
1105,56189,103.93,30.98,581.0,四川省,成都市,彭州市
1106,56190,104.55,31.55,519.0,四川省,绵阳市,安县
1107,56192,104.67,32.95,1014.0,甘肃省,陇南市,文县
1108,56193,104.52,32.42,893.0,四川省,绵阳市,平武县
1109,56194,104.45,31.63,597.0,四川省,绵阳市,安县
1110,56195,104.73,31.8,543.0,四川省,绵阳市,江油市
1111,56196,104.73,31.45,522.0,四川省,绵阳市,涪城区
1112,56197,104.17,31.15,535.0,四川省,德阳市,什邡市
1113,56198,104.5,31.32,525.0,四川省,德阳市,罗江县
1114,56199,104.71,31.04,459.0,四川省,德阳市,中江县
1115,56202,93.28,30.67,4488.0,西藏自治区,那曲地区,嘉黎县
1116,56223,95.79,30.76,3611.0,西藏自治区,昌都地区,洛隆县
1117,56227,95.77,29.87,2736.0,西藏自治区,林芝地区,波密县
1118,56228,96.84,30.05,3454.0,西藏自治区,昌都地区,八宿县
1119,56247,99.1,30.0,2589.0,四川省,甘孜藏族自治州,巴塘县
1120,56251,100.32,30.93,3000.0,四川省,甘孜藏族自治州,新龙县
1121,56257,100.27,30.0,3948.0,四川省,甘孜藏族自治州,理塘县
1122,56263,101.88,30.88,1949.0,四川省,甘孜藏族自治州,丹巴县
1123,56267,101.02,30.03,2600.0,四川省,甘孜藏族自治州,雅江县
1124,56272,103.88,30.82,558.0,四川省,成都市,郫县
1125,56273,102.82,30.39,1022.0,四川省,雅安市,宝兴县
1126,56276,103.82,30.45,467.0,四川省,成都市,新津县
1127,56278,102.78,30.07,818.0,四川省,雅安市,天全县
1128,56279,102.94,30.16,744.0,四川省,雅安市,芦山县
1129,56280,103.12,30.08,691.0,四川省,雅安市,名山区
1130,56281,103.49,30.2,578.0,四川省,成都市,蒲江县
1131,56284,103.44,30.44,518.0,四川省,成都市,邛崃市
1132,56285,103.47,30.56,544.0,四川省,成都市,大邑县
1133,56286,104.26,30.61,505.0,四川省,成都市,龙泉驿区
1134,56287,103.0,29.98,627.0,四川省,雅安市,雨城区
1135,56288,103.92,30.58,494.0,四川省,成都市,双流县
1136,56289,103.87,30.2,437.0,四川省,眉山市,彭山县
1137,56290,104.18,30.78,514.0,四川省,成都市,新都区
1138,56291,104.31,30.97,468.0,四川省,德阳市,广汉市
1139,56295,104.55,30.38,448.0,四川省,资阳市,简阳市
1140,56296,104.43,30.81,493.0,四川省,成都市,金堂县
1141,56297,104.14,30.04,435.0,四川省,眉山市,仁寿县
1142,56298,104.6,30.13,417.0,四川省,资阳市,雁江区
1143,56307,92.58,29.15,3260.0,西藏自治区,山南地区,加查县
1144,56312,94.33,29.67,2991.0,西藏自治区,林芝地区,林芝县
1145,56317,94.22,29.22,2950.0,西藏自治区,林芝地区,米林县
1146,56331,97.83,29.67,3780.0,西藏自治区,昌都地区,左贡县
1147,56342,98.6,29.65,3846.0,西藏自治区,昌都地区,芒康县
1148,56357,100.3,29.05,3727.0,四川省,甘孜藏族自治州,稻城县
1149,56371,102.21,29.89,1403.0,四川省,甘孜藏族自治州,泸定县
1150,56373,102.84,29.79,797.0,四川省,雅安市,荥经县
1151,56374,101.97,30.05,2615.0,四川省,甘孜藏族自治州,康定县
1152,56376,102.64,29.34,1098.0,四川省,雅安市,汉源县
1153,56378,102.35,29.23,890.0,四川省,雅安市,石棉县
1154,56380,103.36,29.88,571.0,四川省,眉山市,洪雅县
1155,56381,103.49,30.07,630.0,四川省,眉山市,丹棱县
1156,56382,103.55,29.75,475.0,四川省,乐山市,夹江县
1157,56383,103.87,29.83,455.0,四川省,眉山市,青神县
1158,56384,103.59,29.59,423.0,四川省,乐山市,峨眉山市
1159,56385,103.34,29.52,3069.0,四川省,乐山市,峨眉山市
1160,56386,103.76,29.56,424.0,四川省,乐山市,市中区
1161,56387,103.26,29.23,642.0,四川省,乐山市,峨边彝族自治县
1162,56388,103.82,29.41,421.0,四川省,乐山市,五通桥区
1163,56389,103.95,29.2,387.0,四川省,乐山市,犍为县
1164,56390,104.07,29.67,404.0,四川省,乐山市,井研县
1165,56391,103.82,30.08,415.0,四川省,眉山市,东坡区
1166,56393,104.85,29.77,369.0,四川省,内江市,资中县
1167,56394,104.43,29.45,384.0,四川省,自贡市,荣县
1168,56395,104.67,29.52,351.0,四川省,内江市,威远县
1169,56396,104.77,29.35,352.0,四川省,自贡市,自流井区
1170,56399,104.98,29.18,306.0,四川省,自贡市,富顺县
1171,56434,97.47,28.67,2366.0,西藏自治区,林芝地区,察隅县
1172,56441,99.28,28.72,2422.0,四川省,甘孜藏族自治州,得荣县
1173,56443,99.8,28.93,2842.0,四川省,甘孜藏族自治州,乡城县
1174,56444,98.91,28.49,3319.0,云南省,迪庆藏族自治州,德钦县
1175,56449,99.73,28.02,3554.0,云南省,迪庆藏族自治州,香格里拉县
1176,56459,101.28,27.93,2426.0,四川省,凉山彝族自治州,木里藏族自治县
1177,56462,101.5,29.0,2925.0,四川省,甘孜藏族自治州,九龙县
1178,56473,102.77,28.95,1060.0,四川省,凉山彝族自治州,甘洛县
1179,56474,102.17,28.55,1774.0,四川省,凉山彝族自治州,冕宁县
1180,56475,102.52,28.65,1659.0,四川省,凉山彝族自治州,越西县
1181,56478,102.43,28.3,1818.0,四川省,凉山彝族自治州,喜德县
1182,56479,102.85,28.0,2132.0,四川省,凉山彝族自治州,昭觉县
1183,56480,103.53,28.82,564.0,四川省,乐山市,马边彝族自治县
1184,56483,103.95,28.58,496.0,云南省,昭通市,绥江县
1185,56485,103.58,28.27,1255.0,四川省,凉山彝族自治州,雷波县
1186,56487,103.13,28.33,1943.0,四川省,凉山彝族自治州,美姑县
1187,56489,103.62,28.24,975.0,云南省,昭通市,永善县
1188,56490,103.9,28.95,424.0,四川省,乐山市,沐川县
1189,56491,104.51,28.69,476.0,四川省,宜宾市,宜宾县
1190,56492,104.61,28.77,502.0,四川省,宜宾市,翠屏区
1191,56493,104.97,28.85,292.0,四川省,宜宾市,南溪区
1192,56494,104.33,28.84,386.0,四川省,宜宾市,宜宾县
1193,56496,105.26,28.33,367.0,四川省,宜宾市,兴文县
1194,56497,104.24,28.11,448.0,云南省,昭通市,盐津县
1195,56498,104.5,28.15,549.0,四川省,宜宾市,筠连县
1196,56499,104.78,28.38,368.0,四川省,宜宾市,珙县
1197,56533,98.67,27.75,1583.0,云南省,怒江傈僳族自治州,贡山独龙族怒族自治县
1198,56543,99.75,27.85,3341.0,云南省,迪庆藏族自治州,香格里拉县
1199,56548,99.29,27.18,2326.0,云南省,迪庆藏族自治州,维西傈僳族自治县
1200,56565,101.49,27.44,2516.0,四川省,凉山彝族自治州,盐源县
1201,56567,100.86,27.26,2367.0,云南省,丽江市,宁蒗彝族自治县
1202,56569,102.18,27.42,1380.0,四川省,凉山彝族自治州,德昌县
1203,56571,102.27,27.9,1590.0,四川省,凉山彝族自治州,西昌市
1204,56575,102.55,27.37,1530.0,四川省,凉山彝族自治州,普格县
1205,56578,102.75,27.07,993.0,四川省,凉山彝族自治州,宁南县
1206,56580,102.8,27.72,2460.0,四川省,凉山彝族自治州,布拖县
1207,56582,103.89,27.75,1176.0,云南省,昭通市,大关县
1208,56584,103.25,27.7,1093.0,四川省,凉山彝族自治州,金阳县
1209,56585,103.56,27.19,1952.0,云南省,昭通市,鲁甸县
1210,56586,103.72,27.35,1949.0,云南省,昭通市,昭阳区
1211,56592,104.5,28.44,378.0,四川省,宜宾市,高县
1212,56593,104.95,28.59,418.0,四川省,宜宾市,长宁县
1213,56594,104.07,27.63,1035.0,云南省,昭通市,彝良县
1214,56595,104.87,27.41,1645.0,云南省,昭通市,镇雄县
1215,56596,105.05,27.85,1217.0,云南省,昭通市,威信县
1216,56598,104.69,27.09,1629.0,贵州省,毕节市,赫章县
1217,56641,98.87,26.9,1189.0,云南省,怒江傈僳族自治州,福贡县
1218,56643,98.85,25.87,949.0,云南省,怒江傈僳族自治州,泸水县
1219,56645,99.41,26.44,2344.0,云南省,怒江傈僳族自治州,兰坪白族普米族自治县
1220,56646,99.91,26.54,2191.0,云南省,大理白族自治州,剑川县
1221,56649,99.96,26.11,2059.0,云南省,大理白族自治州,洱源县
1222,56651,100.22,26.85,2380.0,云南省,丽江市,古城区
1223,56652,100.75,26.68,2130.0,云南省,丽江市,永胜县
1224,56654,100.2,26.59,2195.0,云南省,大理白族自治州,鹤庆县
1225,56664,101.27,26.63,1230.0,云南省,丽江市,华坪县
1226,56665,101.85,26.68,1140.0,四川省,攀枝花市,盐边县
1227,56666,101.72,26.58,1224.0,四川省,攀枝花市,东区
1228,56669,101.66,26.04,1589.0,云南省,楚雄彝族自治州,永仁县
1229,56670,102.12,26.92,1136.0,四川省,攀枝花市,米易县
1230,56671,102.25,26.65,1787.0,四川省,凉山彝族自治州,会理县
1231,56673,102.93,26.92,893.0,云南省,昭通市,巧家县
1232,56674,101.75,26.49,1280.0,四川省,攀枝花市,仁和区
1233,56675,102.58,26.65,1694.0,四川省,凉山彝族自治州,会东县
1234,56684,103.25,26.4,2188.0,云南省,曲靖市,会泽县
1235,56688,103.17,26.1,1263.0,云南省,昆明市,东川区
1236,56691,104.28,26.87,2237.0,贵州省,毕节市,威宁彝族回族苗族自治县
1237,56693,104.87,26.58,1815.0,贵州省,六盘水市,钟山区
1238,56697,104.08,26.22,1984.0,云南省,曲靖市,宣威市
1239,56739,98.51,24.98,1695.0,云南省,保山市,腾冲县
1240,56742,99.37,25.89,1723.0,云南省,大理白族自治州,云龙县
1241,56745,99.95,25.68,1626.0,云南省,大理白族自治州,漾濞彝族自治县
1242,56746,99.53,25.45,1616.0,云南省,大理白族自治州,永平县
1243,56748,99.18,25.12,1652.0,云南省,保山市,隆阳区
1244,56751,100.18,25.71,1977.0,云南省,大理白族自治州,大理市
1245,56752,100.57,25.83,1438.0,云南省,大理白族自治州,宾川县
1246,56755,100.4,25.39,1711.0,云南省,大理白族自治州,弥渡县
1247,56756,100.58,25.49,1992.0,云南省,大理白族自治州,祥云县
1248,56757,100.29,25.26,1742.0,云南省,大理白族自治州,巍山彝族回族自治县
1249,56761,101.32,25.72,1878.0,云南省,楚雄彝族自治州,大姚县
1250,56763,101.87,25.73,1120.0,云南省,楚雄彝族自治州,元谋县
1251,56764,101.23,25.53,1873.0,云南省,楚雄彝族自治州,姚安县
1252,56766,101.52,25.31,1822.0,云南省,楚雄彝族自治州,牟定县
1253,56767,101.26,25.21,1905.0,云南省,楚雄彝族自治州,南华县
1254,56768,101.55,25.03,1824.0,云南省,楚雄彝族自治州,楚雄市
1255,56772,102.5,25.23,1692.0,云南省,昆明市,富民县
1256,56774,102.42,25.5,1799.0,云南省,楚雄彝族自治州,武定县
1257,56775,102.45,25.55,1750.0,云南省,楚雄彝族自治州,武定县
1258,56777,102.1,25.11,1671.0,云南省,楚雄彝族自治州,禄丰县
1259,56778,102.65,25.0,1888.0,云南省,昆明市,西山区
1260,56781,103.27,25.52,1865.0,云南省,昆明市,寻甸回族彝族自治县
1261,56782,103.57,25.43,2067.0,云南省,曲靖市,马龙县
1262,56783,103.8,25.5,1906.0,云南省,曲靖市,麒麟区
1263,56785,103.08,25.36,1915.0,云南省,昆明市,嵩明县
1264,56786,103.82,25.6,1891.0,云南省,曲靖市,沾益县
1265,56788,103.62,24.98,1857.0,云南省,曲靖市,陆良县
1266,56790,104.25,25.68,1925.0,云南省,曲靖市,富源县
1267,56792,104.97,25.78,1649.0,贵州省,黔西南布依族苗族自治州,普安县
1268,56793,104.53,25.75,2125.0,贵州省,六盘水市,盘县
1269,56835,97.78,24.17,990.0,云南省,德宏傣族景颇族自治州,陇川县
1270,56836,97.95,24.7,826.0,云南省,德宏傣族景颇族自治州,盈江县
1271,56838,97.85,24.0,762.0,云南省,德宏傣族景颇族自治州,瑞丽市
1272,56839,98.82,23.76,1053.0,云南省,临沧市,镇康县
1273,56840,98.26,24.8,1124.0,云南省,德宏傣族景颇族自治州,梁河县
1274,56841,98.69,24.62,1630.0,云南省,保山市,龙陵县
1275,56842,99.18,24.73,1471.0,云南省,保山市,施甸县
1276,56843,99.62,24.8,1666.0,云南省,保山市,昌宁县
1277,56844,98.58,24.43,913.0,云南省,德宏傣族景颇族自治州,芒市
1278,56846,99.93,24.58,1569.0,云南省,临沧市,凤庆县
1279,56849,99.23,24.03,1606.0,云南省,临沧市,永德县
1280,56851,100.52,25.04,1377.0,云南省,大理白族自治州,南涧彝族自治县
1281,56854,100.13,24.45,1108.0,云南省,临沧市,云县
1282,56856,100.86,24.44,1162.0,云南省,普洱市,景东彝族自治县
1283,56862,101.6,24.68,1968.0,云南省,楚雄彝族自治州,双柏县
1284,56863,102.5,24.92,1893.0,云南省,昆明市,安宁市
1285,56867,101.12,23.99,1105.0,云南省,普洱市,镇沅
1286,56869,101.97,24.07,1497.0,云南省,玉溪市,新平彝族傣族自治县
1287,56870,102.18,24.66,1600.0,云南省,玉溪市,易门县
1288,56871,102.57,24.68,1979.0,云南省,昆明市,晋宁县
1289,56872,102.62,24.96,2358.0,云南省,昆明市,西山区
1290,56873,102.92,24.68,1796.0,云南省,玉溪市,澄江县
1291,56875,102.55,24.33,1716.0,云南省,玉溪市,红塔区
1292,56876,102.76,24.29,1731.0,云南省,玉溪市,江川县
1293,56878,102.75,24.13,1801.0,云南省,玉溪市,通海县
1294,56879,102.91,24.19,1702.0,云南省,玉溪市,华宁县
1295,56880,103.14,24.89,1639.0,云南省,昆明市,宜良县
1296,56881,103.26,24.75,1695.0,云南省,昆明市,石林彝族自治县
1297,56882,102.83,24.91,1976.0,云南省,昆明市,呈贡区
1298,56883,103.98,24.82,1900.0,云南省,曲靖市,师宗县
1299,56885,103.45,24.4,1415.0,云南省,红河哈尼族彝族自治州,弥勒县
1300,56886,103.77,24.53,1704.0,云南省,红河哈尼族彝族自治州,泸西县
1301,56889,104.18,24.04,1518.0,云南省,文山壮族苗族自治州,丘北县
1302,56891,104.32,24.88,1482.0,云南省,曲靖市,罗平县
1303,56898,102.41,24.18,1600.0,云南省,玉溪市,峨山彝族自治县
1304,56944,99.27,23.15,1278.0,云南省,临沧市,沧源佤族自治县
1305,56946,99.39,23.53,1144.0,云南省,临沧市,耿马傣族佤族自治县
1306,56948,99.64,22.64,1245.0,云南省,普洱市,西盟佤族自治县
1307,56949,99.6,22.31,1079.0,云南省,普洱市,孟连
1308,56950,99.8,23.47,1044.0,云南省,临沧市,双江
1309,56951,100.12,23.88,1636.0,云南省,临沧市,临翔区
1310,56952,100.72,23.5,979.0,云南省,普洱市,景谷傣族彝族自治县
1311,56954,99.93,22.57,1054.0,云南省,普洱市,澜沧拉祜族自治县
1312,56958,100.47,21.96,1222.0,云南省,西双版纳傣族自治州,勐海县
1313,56959,100.78,22.01,582.0,云南省,西双版纳傣族自治州,景洪市
1314,56961,101.05,23.03,1336.0,云南省,普洱市,宁洱哈尼族彝族自治县
1315,56962,101.67,23.46,1366.0,云南省,普洱市,墨江哈尼族自治县
1316,56964,100.96,22.79,1302.0,云南省,普洱市,思茅区
1317,56966,101.97,23.63,506.0,云南省,玉溪市,元江
1318,56969,101.58,21.47,633.0,云南省,西双版纳傣族自治州,勐腊县
1319,56970,102.47,23.72,1478.0,云南省,红河哈尼族彝族自治州,石屏县
1320,56973,102.83,23.62,1309.0,云南省,红河哈尼族彝族自治州,建水县
1321,56975,102.43,23.37,974.0,云南省,红河哈尼族彝族自治州,红河县
1322,56976,102.82,23.23,312.0,云南省,红河哈尼族彝族自治州,元阳县
1323,56977,101.86,22.61,1269.0,云南省,普洱市,江城哈尼族彝族自治县
1324,56978,102.42,23.0,1642.0,云南省,红河哈尼族彝族自治州,绿春县
1325,56982,103.29,23.72,1195.0,云南省,红河哈尼族彝族自治州,开远市
1326,56984,103.15,23.39,1848.0,云南省,红河哈尼族彝族自治州,个旧市
1327,56985,103.33,23.44,1313.0,云南省,红河哈尼族彝族自治州,蒙自市
1328,56986,103.68,22.98,1414.0,云南省,红河哈尼族彝族自治州,屏边苗族自治县
1329,56987,103.23,22.78,1260.0,云南省,红河哈尼族彝族自治州,金平苗族瑶族傣族自治县
1330,56989,103.95,22.5,137.0,Lao Cai,Lao Cai,
1331,56991,104.34,23.6,1561.0,云南省,文山壮族苗族自治州,砚山县
1332,56992,104.68,23.44,1507.0,云南省,文山壮族苗族自治州,西畴县
1333,56994,104.28,23.33,1293.0,云南省,文山壮族苗族自治州,文山市
1334,56995,104.4,23.02,1332.0,云南省,文山壮族苗族自治州,马关县
1335,56996,104.7,23.13,1093.0,云南省,文山壮族苗族自治州,麻栗坡县
1336,57001,105.33,34.75,1271.0,甘肃省,天水市,甘谷县
1337,57002,105.65,34.86,1216.0,甘肃省,天水市,秦安县
1338,57003,106.83,34.9,924.0,陕西省,宝鸡市,陇县
1339,57004,104.88,34.73,1495.0,甘肃省,天水市,武山县
1340,57006,105.74,34.57,1149.0,甘肃省,天水市,秦州区
1341,57007,105.15,34.17,1383.0,甘肃省,陇南市,礼县
1342,57008,105.3,34.03,1579.0,甘肃省,陇南市,西和县
1343,57011,106.15,34.74,1416.0,甘肃省,天水市,清水县
1344,57012,106.2,34.99,1664.0,甘肃省,天水市,张家川回族自治县
1345,57014,105.87,34.57,1085.0,甘肃省,天水市,麦积区
1346,57016,107.13,34.35,612.0,陕西省,宝鸡市,渭滨区
1347,57020,107.4,34.37,563.0,陕西省,宝鸡市,陈仓区
1348,57021,107.13,34.65,751.0,陕西省,宝鸡市,千阳县
1349,57022,107.78,34.68,1026.0,陕西省,宝鸡市,麟游县
1350,57023,108.11,35.02,919.0,陕西省,咸阳市,彬县
1351,57024,107.65,34.45,669.0,陕西省,宝鸡市,岐山县
1352,57025,107.38,34.52,781.0,陕西省,宝鸡市,凤翔县
1353,57026,107.88,34.37,585.0,陕西省,宝鸡市,扶风县
1354,57027,107.73,34.3,490.0,陕西省,宝鸡市,眉县
1355,57028,107.32,34.06,1576.0,陕西省,宝鸡市,太白县
1356,57029,108.45,34.49,542.0,陕西省,咸阳市,礼泉县
1357,57030,108.15,34.7,994.0,陕西省,咸阳市,永寿县
1358,57031,108.55,34.82,1012.0,陕西省,咸阳市,淳化县
1359,57032,108.21,34.14,436.0,陕西省,西安市,周至县
1360,57033,108.82,34.55,428.0,陕西省,咸阳市,泾阳县
1361,57034,108.24,34.31,471.0,陕西省,咸阳市,武功县
1362,57035,108.23,34.55,636.0,陕西省,咸阳市,乾县
1363,57037,108.97,34.93,723.0,陕西省,铜川市,耀州区
1364,57038,108.45,34.28,410.0,陕西省,咸阳市,兴平市
1365,57039,108.88,34.08,445.0,陕西省,西安市,长安区
1366,57040,109.07,34.54,385.0,陕西省,西安市,高陵县
1367,57041,108.92,34.63,424.0,陕西省,咸阳市,三原县
1368,57042,109.19,34.78,474.0,陕西省,渭南市,富平县
1369,57043,109.97,34.8,351.0,陕西省,渭南市,大荔县
1370,57044,109.23,34.4,424.0,陕西省,西安市,临潼区
1371,57045,109.49,34.4,640.0,陕西省,渭南市,临渭区
1372,57046,110.08,34.48,2064.0,陕西省,渭南市,华阴市
1373,57047,109.32,34.17,540.0,陕西省,西安市,蓝田县
1374,57048,108.72,34.4,472.0,陕西省,咸阳市,渭城区
1375,57049,109.73,34.52,341.0,陕西省,渭南市,华县
1376,57051,111.24,34.72,575.0,河南省,三门峡市,湖滨区
1377,57052,110.45,34.88,354.0,山西省,运城市,永济市
1378,57053,110.72,34.7,505.0,山西省,运城市,芮城县
1379,57054,110.25,34.57,542.0,陕西省,渭南市,潼关县
1380,57055,110.13,34.59,342.0,陕西省,渭南市,华阴市
1381,57056,110.86,34.54,484.0,河南省,三门峡市,灵宝市
1382,57057,110.15,34.1,963.0,陕西省,商洛市,洛南县
1383,57060,111.22,35.15,402.0,山西省,运城市,夏县
1384,57061,111.2,34.85,410.0,山西省,运城市,平陆县
1385,57063,111.76,34.75,542.0,河南省,三门峡市,渑池县
1386,57065,112.13,34.55,317.0,河南省,洛阳市,宜阳县
1387,57066,111.67,34.4,408.0,河南省,洛阳市,洛宁县
1388,57067,111.07,34.08,658.0,河南省,三门峡市,卢氏县
1389,57070,112.12,34.74,364.0,河南省,洛阳市,新安县
1390,57071,112.47,34.8,329.0,河南省,洛阳市,孟津县
1391,57072,112.76,34.91,127.0,河南省,焦作市,孟州市
1392,57074,112.4,34.42,252.0,河南省,洛阳市,伊川县
1393,57075,112.89,34.24,438.0,河南省,平顶山市,汝州市
1394,57076,112.79,34.74,189.0,河南省,洛阳市,偃师市
1395,57077,111.66,33.78,742.0,河南省,洛阳市,栾川县
1396,57078,112.47,34.16,336.0,河南省,洛阳市,汝阳县
1397,57079,113.04,34.95,106.0,河南省,焦作市,温县
1398,57080,112.97,34.74,165.0,河南省,郑州市,巩义市
1399,57081,113.4,34.79,140.0,河南省,郑州市,荥阳市
1400,57082,113.01,34.46,427.0,河南省,郑州市,登封市
1401,57083,113.66,34.71,110.0,河南省,郑州市,二七区
1402,57084,113.05,34.49,1178.0,河南省,郑州市,登封市
1403,57085,113.34,34.54,259.0,河南省,郑州市,新密市
1404,57086,113.72,34.38,116.0,河南省,郑州市,新郑市
1405,57087,113.74,34.27,104.0,河南省,许昌市,长葛市
1406,57088,113.5,34.19,146.0,河南省,许昌市,禹州市
1407,57089,113.93,34.07,67.0,河南省,许昌市,许昌县
1408,57090,113.97,34.71,78.0,河南省,郑州市,中牟县
1409,57091,114.29,34.8,73.0,河南省,开封市,开封市市辖区
1410,57093,114.82,34.84,73.0,河南省,开封市,兰考县
1411,57094,114.22,34.4,67.0,河南省,开封市,尉氏县
1412,57095,114.16,34.11,61.0,河南省,许昌市,鄢陵县
1413,57096,114.78,34.54,59.0,河南省,开封市,杞县
1414,57098,114.41,34.08,58.0,河南省,周口市,扶沟县
1415,57099,114.85,34.07,52.0,河南省,周口市,太康县
1416,57102,105.72,33.75,970.0,甘肃省,陇南市,成县
1417,57105,105.6,33.33,1221.0,甘肃省,陇南市,康县
1418,57106,106.15,33.32,794.0,陕西省,汉中市,略阳县
1419,57110,106.07,33.79,1003.0,甘肃省,陇南市,徽县
1420,57111,106.3,33.92,961.0,甘肃省,陇南市,两当县
1421,57113,106.54,33.93,984.0,陕西省,宝鸡市,凤县
1422,57119,106.7,33.17,548.0,陕西省,汉中市,勉县
1423,57123,108.07,34.28,506.0,陕西省,咸阳市,杨陵区
1424,57124,106.92,33.62,1039.0,陕西省,汉中市,留坝县
1425,57126,107.55,33.22,468.0,陕西省,汉中市,洋县
1426,57127,107.03,33.07,509.0,陕西省,汉中市,汉台区
1427,57128,107.33,33.17,486.0,陕西省,汉中市,城固县
1428,57129,107.72,32.98,446.0,陕西省,汉中市,西乡县
1429,57131,108.97,34.43,410.0,陕西省,西安市,未央区
1430,57132,108.58,34.13,411.0,陕西省,西安市,户县
1431,57134,107.98,33.52,827.0,陕西省,汉中市,佛坪县
1432,57137,108.32,33.32,802.0,陕西省,安康市,宁陕县
1433,57140,109.12,33.67,818.0,陕西省,商洛市,柞水县
1434,57143,109.97,33.85,747.0,陕西省,商洛市,商州区
1435,57144,109.15,33.43,693.0,陕西省,商洛市,镇安县
1436,57153,110.33,33.7,639.0,陕西省,商洛市,丹凤县
1437,57154,110.9,33.53,523.0,陕西省,商洛市,商南县
1438,57155,109.92,33.53,813.0,陕西省,商洛市,山阳县
1439,57156,111.49,33.31,250.0,河南省,南阳市,西峡县
1440,57162,112.07,34.14,440.0,河南省,洛阳市,嵩县
1441,57169,111.88,33.15,221.0,河南省,南阳市,内乡县
1442,57173,112.89,33.76,145.0,河南省,平顶山市,鲁山县
1443,57175,112.24,33.08,239.0,河南省,南阳市,镇平县
1444,57176,112.46,33.43,244.0,河南省,南阳市,南召县
1445,57177,113.54,33.34,89.0,河南省,平顶山市,舞钢市
1446,57178,112.49,33.1,180.0,河南省,南阳市,卧龙区
1447,57179,112.99,33.28,164.0,河南省,南阳市,方城县
1448,57180,113.21,34.02,184.0,河南省,平顶山市,郏县
1449,57181,113.04,33.87,136.0,河南省,平顶山市,宝丰县
1450,57182,113.52,33.85,80.0,河南省,许昌市,襄城县
1451,57183,113.93,33.8,60.0,河南省,漯河市,临颍县
1452,57184,113.3,33.63,97.0,河南省,平顶山市,叶县
1453,57185,113.59,33.46,91.0,河南省,漯河市,舞阳县
1454,57186,114.06,33.6,58.0,河南省,漯河市,郾城区
1455,57187,112.96,33.03,116.0,河南省,南阳市,社旗县
1456,57188,114.04,33.37,55.0,河南省,驻马店市,西平县
1457,57189,113.96,33.15,64.0,河南省,驻马店市,遂平县
1458,57190,114.42,33.74,50.0,河南省,周口市,西华县
1459,57191,114.47,34.51,64.0,河南省,开封市,通许县
1460,57192,114.88,33.71,44.0,河南省,周口市,淮阳县
1461,57193,114.52,33.78,52.0,河南省,周口市,西华县
1462,57194,114.3,33.27,53.0,河南省,驻马店市,上蔡县
1463,57195,114.63,33.61,46.0,河南省,周口市,川汇区
1464,57196,114.87,33.41,43.0,河南省,周口市,项城市
1465,57197,114.35,32.96,50.0,河南省,驻马店市,汝南县
1466,57198,114.56,33.49,44.0,河南省,周口市,商水县
1467,57204,105.22,32.57,782.0,四川省,广元市,青川县
1468,57206,105.9,32.42,545.0,四川省,广元市,利州区
1469,57208,105.52,32.28,544.0,四川省,广元市,剑阁县
1470,57211,106.25,32.83,836.0,陕西省,汉中市,宁强县
1471,57213,106.93,33.0,536.0,陕西省,汉中市,南郑县
1472,57216,106.83,32.35,579.0,四川省,巴中市,南江县
1473,57217,106.26,32.22,499.0,四川省,广元市,旺苍县
1474,57231,108.53,32.53,503.0,陕西省,安康市,紫阳县
1475,57232,108.27,33.05,484.0,陕西省,安康市,石泉县
1476,57233,108.51,32.92,552.0,陕西省,安康市,汉阴县
1477,57237,108.03,32.07,674.0,四川省,达州市,万源市
1478,57238,107.89,32.52,892.0,陕西省,汉中市,镇巴县
1479,57242,109.37,32.85,285.0,陕西省,安康市,旬阳县
1480,57245,109.04,32.69,290.0,陕西省,安康市,汉滨区
1481,57247,108.9,32.32,438.0,陕西省,安康市,岚皋县
1482,57248,109.34,32.4,570.0,陕西省,安康市,平利县
1483,57249,109.69,32.32,448.0,湖北省,十堰市,竹溪县
1484,57251,110.41,33.0,317.0,湖北省,十堰市,郧西县
1485,57253,110.87,32.84,244.0,湖北省,十堰市,郧县
1486,57254,110.12,32.82,322.0,陕西省,安康市,白河县
1487,57256,110.78,32.65,286.0,湖北省,十堰市,张湾区
1488,57257,110.23,32.23,307.0,湖北省,十堰市,竹山县
1489,57259,110.77,32.03,426.0,湖北省,十堰市,房县
1490,57260,111.51,32.55,133.0,湖北省,十堰市,丹江口市
1491,57261,111.52,33.12,248.0,河南省,南阳市,淅川县
1492,57265,111.73,32.43,132.0,湖北省,襄阳市,老河口市
1493,57268,111.62,32.27,120.0,湖北省,襄阳市,谷城县
1494,57271,112.38,32.52,87.0,河南省,南阳市,新野县
1495,57273,112.8,32.73,96.0,河南省,南阳市,唐河县
1496,57274,111.98,32.7,120.0,河南省,南阳市,邓州市
1497,57278,112.08,32.0,163.0,湖北省,襄阳市,襄城区
1498,57279,112.76,32.14,125.0,湖北省,襄阳市,枣阳市
1499,57281,113.3,32.68,160.0,河南省,驻马店市,泌阳县
1500,57285,113.4,32.36,183.0,河南省,南阳市,桐柏县
1501,57290,113.91,32.94,106.0,河南省,驻马店市,驿城区
1502,57292,114.61,32.9,44.0,河南省,驻马店市,平舆县
1503,57293,114.98,32.74,38.0,河南省,驻马店市,新蔡县
1504,57294,113.95,32.8,113.0,河南省,驻马店市,确山县
1505,57295,114.33,32.62,85.0,河南省,驻马店市,正阳县
1506,57296,114.66,32.34,34.0,河南省,信阳市,息县
1507,57297,114.04,32.14,114.0,河南省,信阳市,浉河区
1508,57298,114.55,32.22,55.0,河南省,信阳市,罗山县
1509,57299,114.89,32.01,49.0,河南省,信阳市,光山县
1510,57303,105.92,31.73,459.0,四川省,广元市,苍溪县
1511,57304,105.17,31.67,516.0,四川省,绵阳市,梓潼县
1512,57306,105.98,31.58,382.0,四川省,南充市,阆中市
1513,57307,105.08,31.1,459.0,四川省,绵阳市,三台县
1514,57308,105.38,31.22,421.0,四川省,绵阳市,盐亭县
1515,57309,105.88,30.98,378.0,四川省,南充市,西充县
1516,57313,106.79,31.89,556.0,四川省,巴中市,巴州区
1517,57314,106.07,31.34,405.0,四川省,南充市,南部县
1518,57315,106.4,31.52,655.0,四川省,南充市,仪陇县
1519,57317,106.41,31.03,324.0,四川省,南充市,蓬安县
1520,57318,106.58,31.06,406.0,四川省,南充市,营山县
1521,57320,107.22,31.93,482.0,四川省,巴中市,通江县
1522,57324,107.08,31.58,364.0,四川省,巴中市,平昌县
1523,57326,107.72,31.37,389.0,四川省,达州市,宣汉县
1524,57328,107.51,31.21,344.0,四川省,达州市,达县
1525,57329,107.85,31.1,467.0,四川省,达州市,开江县
1526,57333,108.67,31.95,798.0,重庆市,重庆市,城口县
1527,57338,108.42,31.18,216.0,重庆市,重庆市,开县
1528,57339,108.68,30.95,297.0,重庆市,重庆市,云阳县
1529,57343,109.53,31.9,995.0,陕西省,安康市,镇坪县
1530,57345,109.62,31.4,337.0,重庆市,重庆市,巫溪县
1531,57348,109.48,31.03,299.0,重庆市,重庆市,奉节县
1532,57349,109.87,31.08,606.0,重庆市,重庆市,巫山县
1533,57355,110.35,31.05,337.0,湖北省,恩施土家族苗族自治州,巴东县
1534,57358,110.97,30.83,295.0,湖北省,宜昌市,秭归县
1535,57359,110.73,31.35,336.0,湖北省,宜昌市,兴山县
1536,57361,111.27,31.88,327.0,湖北省,襄阳市,保康县
1537,57362,110.66,31.75,935.0,湖北省,神农架林区,神农架林区
1538,57363,111.83,31.8,151.0,湖北省,襄阳市,南漳县
1539,57368,111.64,31.05,141.0,湖北省,宜昌市,远安县
1540,57370,112.22,31.73,67.0,湖北省,襄阳市,宜城市
1541,57377,112.21,30.99,191.0,湖北省,荆门市,掇刀区
1542,57378,112.63,31.2,108.0,湖北省,荆门市,钟祥市
1543,57381,113.34,31.62,106.0,湖北省,随州市,曾都区
1544,57385,113.86,31.63,116.0,湖北省,随州市,广水市
1545,57386,114.0,31.25,51.0,湖北省,孝感市,孝昌县
1546,57387,113.13,31.0,84.0,湖北省,荆门市,京山县
1547,57388,113.69,31.26,53.0,湖北省,孝感市,安陆市
1548,57389,113.75,31.03,32.0,湖北省,孝感市,云梦县
1549,57390,114.07,31.8,733.0,河南省,信阳市,浉河区
1550,57395,114.17,31.59,120.0,湖北省,孝感市,大悟县
1551,57396,114.87,31.64,128.0,河南省,信阳市,新县
1552,57398,114.62,31.28,74.0,湖北省,黄冈市,红安县
1553,57399,114.95,31.13,74.0,湖北省,黄冈市,麻城市
1554,57401,105.37,30.87,383.0,四川省,遂宁市,射洪县
1555,57402,105.7,30.77,394.0,四川省,遂宁市,蓬溪县
1556,57403,105.23,30.59,354.0,四川省,遂宁市,大英县
1557,57405,105.55,30.5,355.0,四川省,遂宁市,船山区
1558,57407,105.03,30.28,462.0,四川省,资阳市,乐至县
1559,57408,105.32,30.11,383.0,四川省,资阳市,安岳县
1560,57409,105.78,30.22,331.0,重庆市,重庆市,潼南县
1561,57411,106.13,30.75,347.0,四川省,南充市,高坪区
1562,57413,107.0,30.86,305.0,四川省,达州市,渠县
1563,57414,106.45,30.52,403.0,四川省,广安市,岳池县
1564,57415,106.63,30.53,394.0,四川省,广安市,广安区
1565,57416,106.93,30.33,391.0,四川省,广安市,邻水县
1566,57417,106.28,30.35,315.0,四川省,广安市,武胜县
1567,57420,107.19,30.75,418.0,四川省,达州市,大竹县
1568,57425,107.4,30.32,416.0,重庆市,重庆市,垫江县
1569,57426,107.8,30.68,454.0,重庆市,重庆市,梁平县
1570,57431,108.35,30.83,257.0,重庆市,重庆市,万州区
1571,57432,108.4,30.77,186.0,重庆市,重庆市,万州区
1572,57437,108.02,30.3,325.0,重庆市,重庆市,忠县
1573,57438,108.13,29.98,632.0,重庆市,重庆市,石柱土家族自治县
1574,57439,108.93,30.28,1074.0,湖北省,恩施土家族苗族自治州,利川市
1575,57445,109.72,30.6,609.0,湖北省,恩施土家族苗族自治州,建始县
1576,57447,109.47,30.29,454.0,湖北省,恩施土家族苗族自治州,恩施市
1577,57453,111.42,30.76,188.0,湖北省,宜昌市,夷陵区
1578,57458,111.07,30.15,243.0,湖北省,宜昌市,五峰土家族自治县
1579,57460,111.78,30.82,91.0,湖北省,宜昌市,当阳市
1580,57461,111.36,30.74,256.0,湖北省,宜昌市,西陵区
1581,57462,111.08,30.87,139.0,湖北省,宜昌市,夷陵区
1582,57464,111.18,30.47,177.0,湖北省,宜昌市,长阳土家族自治县
1583,57465,111.43,30.36,120.0,湖北省,宜昌市,宜都市
1584,57466,111.75,30.46,66.0,湖北省,宜昌市,枝江市
1585,57469,111.77,30.18,69.0,湖北省,荆州市,松滋市
1586,57475,112.9,30.4,31.0,湖北省,潜江市,潜江市
1587,57476,112.15,30.35,31.0,湖北省,荆州市,荆州区
1588,57477,112.22,30.07,38.0,湖北省,荆州市,公安县
1589,57481,113.58,30.96,30.0,湖北省,孝感市,应城市
1590,57482,113.95,30.9,25.0,湖北省,孝感市,孝南区
1591,57483,113.13,30.67,31.0,湖北省,天门市,天门市
1592,57484,112.55,30.74,57.0,湖北省,荆门市,沙洋县
1593,57485,113.48,30.3,24.0,湖北省,仙桃市,仙桃市
1594,57486,113.85,30.65,25.0,湖北省,孝感市,汉川市
1595,57489,114.01,30.52,23.0,湖北省,武汉市,蔡甸区
1596,57491,114.4,30.87,31.0,湖北省,武汉市,黄陂区
1597,57492,114.84,30.84,40.0,湖北省,武汉市,新洲区
1598,57493,114.33,30.35,73.0,湖北省,武汉市,江夏区
1599,57494,114.05,30.6,23.0,湖北省,武汉市,东西湖区
1600,57495,114.88,30.67,28.0,湖北省,黄冈市,团风县
1601,57496,114.62,30.25,35.0,湖北省,鄂州市,梁子湖区
1602,57498,114.94,30.52,26.0,湖北省,黄冈市,黄州区
1603,57499,114.88,30.07,40.0,湖北省,黄石市,大冶市
1604,57502,105.69,29.71,541.0,重庆市,重庆市,大足区
1605,57503,105.12,29.62,349.0,四川省,内江市,东兴区
1606,57505,105.58,29.42,338.0,重庆市,重庆市,荣昌县
1607,57506,105.9,29.37,353.0,重庆市,重庆市,永川区
1608,57507,105.3,29.33,385.0,四川省,内江市,隆昌县
1609,57508,105.37,29.15,301.0,四川省,泸州市,泸县
1610,57509,106.92,28.99,599.0,重庆市,重庆市,綦江区
1611,57510,106.07,29.85,326.0,重庆市,重庆市,铜梁县
1612,57511,106.45,29.85,240.0,重庆市,重庆市,北碚区
1613,57512,106.27,29.97,364.0,重庆市,重庆市,合川区
1614,57513,106.63,29.73,464.0,重庆市,重庆市,渝北区
1615,57514,106.22,29.58,331.0,重庆市,重庆市,璧山县
1616,57516,106.47,29.58,259.0,重庆市,重庆市,沙坪坝区
1617,57517,106.25,29.28,261.0,重庆市,重庆市,江津区
1618,57518,106.5,29.33,506.0,重庆市,重庆市,巴南区
1619,57519,107.12,29.17,698.0,重庆市,重庆市,南川区
1620,57520,107.07,29.83,377.0,重庆市,重庆市,长寿区
1621,57522,107.27,29.73,372.0,重庆市,重庆市,涪陵区
1622,57523,107.76,29.9,393.0,重庆市,重庆市,丰都县
1623,57525,107.75,29.32,406.0,重庆市,重庆市,武隆县
1624,57536,108.77,29.52,786.0,重庆市,重庆市,黔江区
1625,57537,108.17,29.3,322.0,重庆市,重庆市,彭水苗族土家族自治县
1626,57540,109.14,29.68,776.0,湖北省,恩施土家族苗族自治州,咸丰县
1627,57541,109.48,30.0,571.0,湖北省,恩施土家族苗族自治州,宣恩县
1628,57543,110.03,29.88,539.0,湖北省,恩施土家族苗族自治州,鹤峰县
1629,57544,109.44,29.46,488.0,湖南省,湘西土家族苗族自治州,龙山县
1630,57545,109.42,29.53,502.0,湖北省,恩施土家族苗族自治州,来凤县
1631,57554,110.16,29.4,322.0,湖南省,张家界市,桑植县
1632,57558,110.42,29.12,218.0,湖南省,张家界市,永定区
1633,57562,111.36,29.58,116.0,湖南省,常德市,石门县
1634,57564,111.09,29.43,174.0,湖南省,张家界市,慈利县
1635,57565,111.73,29.67,38.0,湖南省,常德市,澧县
1636,57566,111.67,29.47,89.0,湖南省,常德市,临澧县
1637,57571,112.41,29.66,37.0,湖北省,荆州市,石首市
1638,57573,112.9,29.88,26.0,湖北省,荆州市,监利县
1639,57574,112.43,29.35,40.0,湖南省,益阳市,南县
1640,57575,112.6,29.54,49.0,湖南省,岳阳市,华容县
1641,57577,112.2,29.41,33.0,湖南省,常德市,安乡县
1642,57581,113.44,29.81,24.0,湖北省,荆州市,洪湖市
1643,57582,113.87,29.72,46.0,湖北省,咸宁市,赤壁市
1644,57583,113.97,29.92,61.0,湖北省,咸宁市,嘉鱼县
1645,57584,113.09,29.38,53.0,湖南省,岳阳市,岳阳县
1646,57585,113.45,29.48,60.0,湖南省,岳阳市,临湘市
1647,57586,114.04,29.54,78.0,湖北省,咸宁市,崇阳县
1648,57589,113.88,29.27,146.0,湖北省,咸宁市,通城县
1649,57590,114.37,29.85,98.0,湖北省,咸宁市,咸安区
1650,57595,114.46,29.61,99.0,湖北省,咸宁市,通山县
1651,57596,114.21,29.63,751.0,湖北省,咸宁市,崇阳县
1652,57598,114.58,29.03,146.0,江西省,九江市,修水县
1653,57600,105.06,28.71,420.0,四川省,宜宾市,江安县
1654,57603,105.83,28.82,283.0,四川省,泸州市,合江县
1655,57604,105.39,28.79,368.0,四川省,泸州市,纳溪区
1656,57605,105.82,28.03,537.0,四川省,泸州市,古蔺县
1657,57606,106.83,28.13,972.0,贵州省,遵义市,桐梓县
1658,57608,105.43,28.17,377.0,四川省,泸州市,叙永县
1659,57609,105.71,28.56,354.0,贵州省,遵义市,赤水市
1660,57612,106.65,29.0,474.0,重庆市,重庆市,綦江区
1661,57614,106.22,28.33,1180.0,贵州省,遵义市,习水县
1662,57623,107.6,28.88,685.0,贵州省,遵义市,道真仡佬族苗族自治县
1663,57625,107.46,28.54,816.0,贵州省,遵义市,正安县
1664,57633,108.77,28.82,826.0,重庆市,重庆市,酉阳土家族苗族自治县
1665,57634,107.89,28.52,660.0,贵州省,遵义市,务川仡佬族苗族自治县
1666,57635,109.02,28.37,548.0,重庆市,重庆市,秀山土家族苗族自治县
1667,57636,108.5,28.56,503.0,贵州省,铜仁市,沿河土家族自治县
1668,57637,108.1,28.25,629.0,贵州省,铜仁市,德江县
1669,57640,109.46,28.58,341.0,湖南省,湘西土家族苗族自治州,花垣县
1670,57642,109.65,28.68,438.0,湖南省,湘西土家族苗族自治州,保靖县
1671,57643,109.84,29.01,268.0,湖南省,湘西土家族苗族自治州,永顺县
1672,57646,109.97,28.62,302.0,湖南省,湘西土家族苗族自治州,古丈县
1673,57647,109.19,28.16,406.0,贵州省,铜仁市,松桃苗族自治县
1674,57649,109.68,28.24,254.0,湖南省,湘西土家族苗族自治州,吉首市
1675,57655,110.4,28.47,151.0,湖南省,怀化市,沅陵县
1676,57657,110.21,28.23,186.0,湖南省,湘西土家族苗族自治州,泸溪县
1677,57658,110.2,28.0,152.0,湖南省,怀化市,辰溪县
1678,57661,111.48,28.91,48.0,湖南省,常德市,桃源县
1679,57662,111.68,29.12,150.0,湖南省,常德市,鼎城区
1680,57663,111.96,28.92,31.0,湖南省,常德市,汉寿县
1681,57666,112.17,28.51,136.0,湖南省,益阳市,桃江县
1682,57669,111.22,28.38,128.0,湖南省,益阳市,安化县
1683,57671,112.37,28.85,37.0,湖南省,益阳市,沅江市
1684,57673,112.93,28.73,63.0,湖南省,岳阳市,湘阴县
1685,57674,112.38,28.57,46.0,湖南省,益阳市,赫山区
1686,57678,112.56,28.25,74.0,湖南省,长沙市,宁乡县
1687,57679,113.2,28.21,101.0,湖南省,长沙市,长沙县
1688,57680,113.11,28.86,82.0,湖南省,岳阳市,汨罗市
1689,57682,113.57,28.71,106.0,湖南省,岳阳市,平江县
1690,57687,112.79,28.11,119.0,湖南省,长沙市,望城区
1691,57688,113.63,28.16,101.0,湖南省,长沙市,浏阳市
1692,57694,114.37,28.53,259.0,江西省,宜春市,铜鼓县
1693,57696,114.77,28.38,91.0,江西省,宜春市,宜丰县
1694,57698,114.43,28.1,122.0,江西省,宜春市,万载县
1695,57699,114.97,28.23,93.0,江西省,宜春市,上高县
1696,57707,105.29,27.3,1510.0,贵州省,毕节市,七星关区
1697,57708,105.6,27.13,1721.0,贵州省,毕节市,大方县
1698,57710,106.4,27.8,890.0,贵州省,遵义市,仁怀市
1699,57712,106.95,27.73,983.0,贵州省,遵义市,汇川区
1700,57713,106.88,27.7,843.0,贵州省,遵义市,汇川区
1701,57714,106.23,27.47,942.0,贵州省,毕节市,金沙县
1702,57717,106.83,27.53,974.0,贵州省,遵义市,遵义县
1703,57718,106.72,27.1,1112.0,贵州省,贵阳市,息烽县
1704,57719,106.91,27.09,1294.0,贵州省,贵阳市,开阳县
1705,57720,107.18,27.96,889.0,贵州省,遵义市,绥阳县
1706,57722,107.51,27.78,807.0,贵州省,遵义市,湄潭县
1707,57723,107.72,27.98,710.0,贵州省,遵义市,凤冈县
1708,57728,107.46,27.04,1129.0,贵州省,黔南布依族苗族自治州,瓮安县
1709,57729,107.88,27.23,622.0,贵州省,遵义市,余庆县
1710,57731,108.25,27.93,574.0,贵州省,铜仁市,思南县
1711,57732,108.4,28.01,521.0,贵州省,铜仁市,印江土家族苗族自治县
1712,57734,108.23,27.57,467.0,贵州省,铜仁市,石阡县
1713,57735,108.82,27.18,423.0,贵州省,黔东南苗族侗族自治州,岑巩县
1714,57736,108.85,27.72,493.0,贵州省,铜仁市,江口县
1715,57737,108.12,27.03,547.0,贵州省,黔东南苗族侗族自治州,施秉县
1716,57738,108.42,27.05,516.0,贵州省,黔东南苗族侗族自治州,镇远县
1717,57739,108.92,27.24,394.0,贵州省,铜仁市,玉屏侗族自治县
1718,57740,109.6,27.95,349.0,湖南省,湘西土家族苗族自治州,凤凰县
1719,57741,109.17,27.71,353.0,贵州省,铜仁市,碧江区
1720,57742,109.21,27.52,884.0,贵州省,铜仁市,万山区
1721,57743,109.8,27.87,176.0,湖南省,怀化市,麻阳苗族自治县
1722,57744,109.16,27.37,355.0,湖南省,怀化市,新晃侗族自治县
1723,57745,109.68,27.45,272.0,湖南省,怀化市,芷江侗族自治县
1724,57749,110.0,27.57,257.0,湖南省,怀化市,鹤城区
1725,57752,110.6,27.92,204.0,湖南省,怀化市,溆浦县
1726,57754,109.84,27.21,252.0,湖南省,怀化市,洪江市
1727,57758,110.61,27.03,339.0,湖南省,邵阳市,洞口县
1728,57760,111.43,27.7,249.0,湖南省,娄底市,冷水江市
1729,57761,111.3,27.75,211.0,湖南省,娄底市,新化县
1730,57762,111.68,27.71,249.0,湖南省,娄底市,涟源市
1731,57763,112.0,27.69,205.0,湖南省,娄底市,娄星区
1732,57766,111.45,27.18,311.0,湖南省,邵阳市,大祥区
1733,57767,111.01,27.13,308.0,湖南省,邵阳市,隆回县
1734,57768,111.45,27.34,294.0,湖南省,邵阳市,新邵县
1735,57769,111.74,27.24,252.0,湖南省,邵阳市,邵东县
1736,57771,112.53,27.93,88.0,湖南省,湘潭市,韶山市
1737,57772,112.51,27.75,86.0,湖南省,湘潭市,湘乡市
1738,57773,112.83,27.88,63.0,湖南省,湘潭市,雨湖区
1739,57774,112.17,27.45,100.0,湖南省,娄底市,双峰县
1740,57776,112.69,27.3,1265.0,湖南省,衡阳市,南岳区
1741,57777,112.84,27.26,159.0,湖南省,衡阳市,衡山县
1742,57778,112.95,27.09,70.0,湖南省,衡阳市,衡东县
1743,57779,113.35,27.06,115.0,湖南省,株洲市,攸县
1744,57780,113.17,27.87,74.0,湖南省,株洲市,荷塘区
1745,57781,113.51,27.64,74.0,湖南省,株洲市,醴陵市
1746,57783,113.82,27.88,118.0,江西省,萍乡市,上栗县
1747,57786,113.85,27.63,117.0,江西省,萍乡市,安源区
1748,57789,113.95,27.13,194.0,江西省,萍乡市,莲花县
1749,57792,114.68,27.82,93.0,江西省,新余市,分宜县
1750,57793,114.37,27.78,131.0,江西省,宜春市,袁州区
1751,57794,114.02,27.63,177.0,江西省,萍乡市,芦溪县
1752,57796,114.88,27.83,189.0,江西省,新余市,渝水区
1753,57798,114.6,27.38,85.0,江西省,吉安市,安福县
1754,57799,114.92,27.05,71.0,江西省,吉安市,吉安县
1755,57800,105.37,26.77,1457.0,贵州省,毕节市,纳雍县
1756,57803,106.02,27.02,1322.0,贵州省,毕节市,黔西县
1757,57805,105.77,26.68,1319.0,贵州省,毕节市,织金县
1758,57806,105.9,26.25,1431.0,贵州省,安顺市,西秀区
1759,57807,105.46,26.22,1407.0,贵州省,六盘水市,六枝特区
1760,57808,105.74,26.31,1281.0,贵州省,安顺市,普定县
1761,57809,105.75,26.07,1251.0,贵州省,安顺市,镇宁布依族苗族自治县
1762,57811,106.6,26.83,1296.0,贵州省,贵阳市,修文县
1763,57813,106.47,26.58,1300.0,贵州省,贵阳市,清镇市
1764,57814,106.27,26.42,1298.0,贵州省,安顺市,平坝县
1765,57816,106.73,26.58,1223.0,贵州省,贵阳市,南明区
1766,57818,106.44,26.01,1186.0,贵州省,黔南布依族苗族自治州,长顺县
1767,57821,107.5,26.7,925.0,贵州省,黔南布依族苗族自治州,福泉市
1768,57822,107.9,26.9,825.0,贵州省,黔东南苗族侗族自治州,黄平县
1769,57824,107.25,26.59,1056.0,贵州省,黔南布依族苗族自治州,贵定县
1770,57825,107.98,26.6,720.0,贵州省,黔东南苗族侗族自治州,凯里市
1771,57827,107.53,26.32,969.0,贵州省,黔南布依族苗族自治州,都匀市
1772,57828,107.58,26.5,983.0,贵州省,黔东南苗族侗族自治州,麻江县
1773,57829,107.8,26.2,963.0,贵州省,黔东南苗族侗族自治州,丹寨县
1774,57832,108.67,26.97,626.0,贵州省,黔东南苗族侗族自治州,三穗县
1775,57834,108.3,26.68,641.0,贵州省,黔东南苗族侗族自治州,台江县
1776,57835,108.43,26.73,527.0,贵州省,黔东南苗族侗族自治州,剑河县
1777,57837,108.07,26.4,839.0,贵州省,黔东南苗族侗族自治州,雷山县
1778,57839,109.13,26.23,568.0,贵州省,黔东南苗族侗族自治州,黎平县
1779,57840,109.2,26.9,401.0,贵州省,黔东南苗族侗族自治州,天柱县
1780,57841,109.67,26.57,320.0,湖南省,怀化市,靖州苗族侗族自治县
1781,57842,109.72,26.88,281.0,湖南省,怀化市,会同县
1782,57844,109.26,26.51,476.0,贵州省,黔东南苗族侗族自治州,锦屏县
1783,57845,109.78,26.17,397.0,湖南省,怀化市,通道侗族自治县
1784,57846,110.15,26.58,310.0,湖南省,邵阳市,绥宁县
1785,57851,110.83,26.46,346.0,湖南省,邵阳市,新宁县
1786,57853,110.63,26.73,341.0,湖南省,邵阳市,武冈市
1787,57857,110.32,26.37,477.0,湖南省,邵阳市,城步苗族自治县
1788,57859,110.63,26.03,408.0,广西壮族自治区,桂林市,资源县
1789,57860,111.28,27.0,283.0,湖南省,邵阳市,邵阳县
1790,57865,111.62,26.5,192.0,湖南省,永州市,冷水滩区
1791,57866,111.62,26.23,172.0,湖南省,永州市,零陵区
1792,57867,111.29,26.4,169.0,湖南省,永州市,东安县
1793,57868,111.86,26.59,113.0,湖南省,永州市,祁阳县
1794,57870,112.1,26.79,151.0,湖南省,衡阳市,祁东县
1795,57871,112.37,26.97,90.0,湖南省,衡阳市,衡阳县
1796,57872,112.6,26.89,104.0,湖南省,衡阳市,蒸湘区
1797,57874,112.39,26.41,116.0,湖南省,衡阳市,常宁市
1798,57875,112.69,26.75,137.0,湖南省,衡阳市,衡南县
1799,57876,112.83,26.43,135.0,湖南省,衡阳市,耒阳市
1800,57881,113.26,26.71,101.0,湖南省,郴州市,安仁县
1801,57882,113.55,26.79,136.0,湖南省,株洲市,茶陵县
1802,57883,114.28,26.75,253.0,江西省,吉安市,井冈山市
1803,57886,113.79,26.48,268.0,湖南省,株洲市,炎陵县
1804,57887,113.11,26.13,167.0,湖南省,郴州市,永兴县
1805,57889,113.94,26.08,835.0,湖南省,郴州市,桂东县
1806,57891,114.25,26.93,153.0,江西省,吉安市,永新县
1807,57894,114.17,26.58,843.0,江西省,吉安市,井冈山市
1808,57895,114.78,26.47,101.0,江西省,吉安市,万安县
1809,57896,114.52,26.33,126.0,江西省,吉安市,遂川县
1810,57899,114.88,26.82,103.0,江西省,吉安市,泰和县
1811,57900,105.22,25.83,1552.0,贵州省,黔西南布依族苗族自治州,晴隆县
1812,57902,105.18,25.43,1378.0,贵州省,黔西南布依族苗族自治州,兴仁县
1813,57903,105.6,25.94,1142.0,贵州省,安顺市,关岭布依族苗族自治县
1814,57905,105.61,25.4,1184.0,贵州省,黔西南布依族苗族自治州,贞丰县
1815,57906,106.08,25.18,566.0,贵州省,黔西南布依族苗族自治州,望谟县
1816,57907,104.9,25.08,1299.0,贵州省,黔西南布依族苗族自治州,兴义市
1817,57908,105.48,25.12,1394.0,贵州省,黔西南布依族苗族自治州,安龙县
1818,57909,105.82,24.98,584.0,贵州省,黔西南布依族苗族自治州,册亨县
1819,57910,106.08,25.77,1197.0,贵州省,安顺市,紫云苗族布依族自治县
1820,57911,106.67,26.68,1323.0,贵州省,贵阳市,白云区
1821,57912,106.63,26.13,990.0,贵州省,黔南布依族苗族自治州,惠水县
1822,57913,106.98,26.45,1093.0,贵州省,黔南布依族苗族自治州,龙里县
1823,57914,106.67,26.42,1149.0,贵州省,贵阳市,花溪区
1824,57915,106.77,26.63,1104.0,贵州省,贵阳市,乌当区
1825,57916,106.77,25.43,440.0,贵州省,黔南布依族苗族自治州,罗甸县
1826,57921,107.34,25.85,821.0,贵州省,黔南布依族苗族自治州,平塘县
1827,57922,107.54,25.83,1013.0,贵州省,黔南布依族苗族自治州,独山县
1828,57923,107.87,25.98,452.0,贵州省,黔南布依族苗族自治州,三都水族自治县
1829,57926,107.88,25.42,428.0,贵州省,黔南布依族苗族自治州,荔波县
1830,57927,107.18,24.97,287.0,广西壮族自治区,河池市,天峨县
1831,57932,108.52,25.93,285.0,贵州省,黔东南苗族侗族自治州,榕江县
1832,57936,108.91,25.76,258.0,贵州省,黔东南苗族侗族自治州,从江县
1833,57941,109.6,25.78,197.0,广西壮族自治区,柳州市,三江侗族自治县
1834,57942,110.0,25.8,268.0,广西壮族自治区,桂林市,龙胜各族自治县
1835,57947,109.4,25.23,161.0,广西壮族自治区,柳州市,融安县
1836,57948,109.25,25.12,238.0,广西壮族自治区,柳州市,融水苗族自治县
1837,57949,110.0,24.98,156.0,广西壮族自治区,桂林市,永福县
1838,57954,110.15,25.23,222.0,广西壮族自治区,桂林市,临桂县
1839,57955,110.67,25.62,224.0,广西壮族自治区,桂林市,兴安县
1840,57956,110.34,25.43,191.0,广西壮族自治区,桂林市,灵川县
1841,57957,110.3,25.32,164.0,广西壮族自治区,桂林市,叠彩区
1842,57958,110.32,25.08,151.0,广西壮族自治区,桂林市,雁山区
1843,57960,111.07,25.93,195.0,广西壮族自治区,桂林市,全州县
1844,57962,111.66,26.03,205.0,湖南省,永州市,双牌县
1845,57964,111.15,25.48,263.0,广西壮族自治区,桂林市,灌阳县
1846,57965,111.6,25.53,192.0,湖南省,永州市,道县
1847,57966,111.96,25.59,244.0,湖南省,永州市,宁远县
1848,57969,111.31,25.28,269.0,湖南省,永州市,江永县
1849,57971,112.2,25.92,224.0,湖南省,永州市,新田县
1850,57972,112.97,25.74,368.0,湖南省,郴州市,北湖区
1851,57973,112.72,25.75,329.0,湖南省,郴州市,桂阳县
1852,57974,112.37,25.58,214.0,湖南省,郴州市,嘉禾县
1853,57975,112.2,25.38,277.0,湖南省,永州市,蓝山县
1854,57976,112.94,25.41,222.0,湖南省,郴州市,宜章县
1855,57978,112.55,25.27,292.0,湖南省,郴州市,临武县
1856,57981,113.22,25.97,139.0,湖南省,郴州市,资兴市
1857,57985,113.68,25.51,645.0,湖南省,郴州市,汝城县
1858,57988,113.35,25.11,143.0,广东省,韶关市,乐昌市
1859,57989,113.76,25.06,112.0,广东省,韶关市,仁化县
1860,57990,114.32,25.7,280.0,江西省,赣州市,崇义县
1861,57991,114.57,25.82,140.0,江西省,赣州市,上犹县
1862,57992,114.73,25.67,127.0,江西省,赣州市,南康市
1863,57993,115.02,25.87,137.0,江西省,赣州市,赣县
1864,57994,114.35,25.4,215.0,江西省,赣州市,大余县
1865,57995,114.87,25.35,204.0,江西省,赣州市,信丰县
1866,57996,114.25,25.08,149.0,广东省,韶关市,南雄市
1867,58001,115.1,34.43,56.0,河南省,商丘市,睢县
1868,58002,115.58,34.85,49.0,山东省,菏泽市,曹县
1869,58003,115.88,34.95,45.0,山东省,菏泽市,成武县
1870,58004,115.19,34.62,61.0,河南省,商丘市,民权县
1871,58005,115.54,34.44,50.0,河南省,商丘市,梁园区
1872,58006,115.88,34.39,46.0,河南省,商丘市,虞城县
1873,58007,115.36,34.1,45.0,河南省,商丘市,柘城县
1874,58008,115.32,34.49,55.0,河南省,商丘市,宁陵县
1875,58011,116.07,34.8,46.0,山东省,菏泽市,单县
1876,58012,116.66,34.67,42.0,江苏省,徐州市,丰县
1877,58013,116.91,34.75,36.0,江苏省,徐州市,沛县
1878,58015,116.33,34.45,44.0,安徽省,宿州市,砀山县
1879,58016,116.97,34.18,34.0,安徽省,宿州市,萧县
1880,58017,116.15,34.28,42.0,河南省,商丘市,夏邑县
1881,58020,117.14,34.77,35.0,山东省,济宁市,微山县
1882,58021,117.28,34.78,80.0,山东省,枣庄市,薛城区
1883,58022,117.48,34.77,83.0,山东省,枣庄市,峄城区
1884,58024,117.58,34.87,77.0,山东省,枣庄市,市中区
1885,58025,117.73,34.57,27.0,山东省,枣庄市,台儿庄区
1886,58026,118.02,34.39,25.0,江苏省,徐州市,邳州市
1887,58027,117.16,34.29,41.0,江苏省,徐州市,鼓楼区
1888,58030,118.02,34.88,44.0,山东省,临沂市,苍山县
1889,58032,118.65,34.95,90.0,山东省,临沂市,临沭县
1890,58034,118.32,34.6,36.0,山东省,临沂市,郯城县
1891,58035,118.35,34.33,29.0,江苏省,徐州市,新沂市
1892,58036,118.71,34.54,32.0,江苏省,连云港市,东海县
1893,58038,118.78,34.08,10.0,江苏省,宿迁市,沭阳县
1894,58040,119.13,34.86,5.0,江苏省,连云港市,赣榆县
1895,58041,119.43,34.78,26.0,江苏省,连云港市,连云区
1896,58044,119.23,34.55,4.0,江苏省,连云港市,海州区
1897,58045,119.6,34.2,4.0,江苏省,盐城市,响水县
1898,58047,119.24,34.26,4.0,江苏省,连云港市,灌云县
1899,58048,119.29,34.06,8.0,江苏省,连云港市,灌南县
1900,58049,119.8,34.02,4.0,江苏省,盐城市,滨海县
1901,58100,115.14,33.63,42.0,河南省,周口市,郸城县
1902,58101,115.49,33.88,41.0,河南省,周口市,鹿邑县
1903,58102,115.73,33.78,39.0,安徽省,亳州市,谯城区
1904,58104,115.05,33.4,41.0,河南省,周口市,项城市
1905,58107,115.26,32.91,36.0,安徽省,阜阳市,临泉县
1906,58108,115.37,33.33,38.0,安徽省,阜阳市,界首市
1907,58109,115.65,33.13,31.0,安徽省,阜阳市,太和县
1908,58111,116.42,33.86,32.0,河南省,商丘市,永城市
1909,58112,116.45,30.73,968.0,安徽省,安庆市,潜山县
1910,58113,116.7,33.95,32.0,安徽省,淮北市,濉溪县
1911,58114,116.18,33.48,31.0,安徽省,亳州市,涡阳县
1912,58116,116.87,34.03,32.0,安徽省,淮北市,杜集区
1913,58117,116.2,33.05,27.0,安徽省,亳州市,利辛县
1914,58118,116.52,33.27,26.0,安徽省,亳州市,蒙城县
1915,58122,117.08,33.64,25.0,安徽省,宿州市,埇桥区
1916,58125,117.52,33.58,22.0,安徽省,宿州市,灵璧县
1917,58126,117.91,33.47,18.0,安徽省,宿州市,泗县
1918,58127,117.07,32.98,24.0,安徽省,蚌埠市,怀远县
1919,58128,117.35,33.33,21.0,安徽省,蚌埠市,固镇县
1920,58129,117.83,33.15,14.0,安徽省,蚌埠市,五河县
1921,58130,117.96,33.94,23.0,江苏省,徐州市,睢宁县
1922,58131,118.22,33.97,25.0,江苏省,宿迁市,宿城区
1923,58132,118.68,33.72,14.0,江苏省,宿迁市,泗阳县
1924,58135,118.22,33.48,16.0,江苏省,宿迁市,泗洪县
1925,58138,118.51,32.95,43.0,江苏省,淮安市,盱眙县
1926,58139,118.91,33.31,10.0,江苏省,淮安市,洪泽县
1927,58140,119.3,33.77,9.0,江苏省,淮安市,涟水县
1928,58141,118.93,33.64,12.0,江苏省,淮安市,淮阴区
1929,58143,119.85,33.8,4.0,江苏省,盐城市,阜宁县
1930,58145,119.15,33.5,7.0,江苏省,淮安市,淮安区
1931,58146,119.77,33.47,3.0,江苏省,盐城市,建湖县
1932,58147,119.01,32.97,12.0,江苏省,淮安市,金湖县
1933,58148,119.34,33.27,3.0,江苏省,扬州市,宝应县
1934,58150,120.3,33.75,1.0,江苏省,盐城市,射阳县
1935,58154,120.1,33.32,4.0,江苏省,盐城市,盐都区
1936,58158,120.46,33.17,3.0,江苏省,盐城市,大丰市
1937,58202,115.57,32.67,31.0,安徽省,阜阳市,阜南县
1938,58203,115.73,32.87,32.0,安徽省,阜阳市,颍州区
1939,58205,115.42,32.47,34.0,河南省,信阳市,淮滨县
1940,58207,115.05,32.16,42.0,河南省,信阳市,潢川县
1941,58208,115.62,32.17,42.0,河南省,信阳市,固始县
1942,58210,116.16,32.67,26.0,安徽省,阜阳市,颍上县
1943,58212,116.77,32.72,23.0,安徽省,淮南市,凤台县
1944,58214,116.3,32.37,27.0,安徽省,六安市,霍邱县
1945,58215,116.78,32.43,25.0,安徽省,六安市,寿县
1946,58220,117.16,32.42,45.0,安徽省,合肥市,长丰县
1947,58221,117.3,32.85,26.0,安徽省,蚌埠市,禹会区
1948,58222,117.55,32.85,24.0,安徽省,滁州市,凤阳县
1949,58223,117.98,32.8,31.0,安徽省,滁州市,明光市
1950,58224,117.05,32.61,71.0,安徽省,淮南市,大通区
1951,58225,117.67,32.53,69.0,安徽省,滁州市,定远县
1952,58230,118.28,32.12,26.0,安徽省,滁州市,全椒县
1953,58234,118.42,32.46,40.0,安徽省,滁州市,来安县
1954,58235,118.85,32.37,10.0,江苏省,南京市,六合区
1955,58236,118.25,32.35,33.0,安徽省,滁州市,南谯区
1956,58237,118.59,32.07,46.0,江苏省,南京市,浦口区
1957,58238,118.9,31.93,35.0,江苏省,南京市,江宁区
1958,58240,119.0,32.74,10.0,安徽省,滁州市,天长市
1959,58241,119.49,32.76,6.0,江苏省,扬州市,高邮市
1960,58242,119.16,32.3,22.0,江苏省,扬州市,仪征市
1961,58243,119.82,32.95,3.0,江苏省,泰州市,兴化市
1962,58244,119.59,32.45,5.0,江苏省,扬州市,江都区
1963,58245,119.42,32.41,9.0,江苏省,扬州市,邗江区
1964,58246,119.99,32.56,2.0,江苏省,泰州市,海陵区
1965,58247,119.8,32.27,3.0,江苏省,镇江市,扬中市
1966,58249,120.05,32.16,6.0,江苏省,泰州市,泰兴市
1967,58250,120.16,32.51,6.0,江苏省,泰州市,姜堰区
1968,58251,120.28,32.85,3.0,江苏省,盐城市,东台市
1969,58252,119.5,32.15,18.0,江苏省,镇江市,润州区
1970,58254,120.41,32.55,6.0,江苏省,南通市,海安县
1971,58255,120.61,32.38,8.0,江苏省,南通市,如皋市
1972,58257,120.3,31.98,9.0,江苏省,泰州市,靖江市
1973,58259,120.98,32.08,4.0,江苏省,南通市,通州区
1974,58264,121.22,32.34,5.0,江苏省,南通市,如东县
1975,58265,121.54,32.1,3.0,江苏省,南通市,海门市
1976,58268,121.08,32.1,4.0,江苏省,南通市,通州区
1977,58269,121.65,31.78,3.0,江苏省,南通市,启东市
1978,58301,115.39,31.82,92.0,河南省,信阳市,商城县
1979,58306,115.88,31.68,95.0,安徽省,六安市,金寨县
1980,58311,116.5,31.73,74.0,安徽省,六安市,裕安区
1981,58314,116.32,31.4,86.0,安徽省,六安市,霍山县
1982,58316,116.92,31.47,23.0,安徽省,六安市,舒城县
1983,58317,116.37,30.87,434.0,安徽省,安庆市,岳西县
1984,58319,116.95,31.07,85.0,安徽省,安庆市,桐城市
1985,58320,117.03,31.61,28.0,安徽省,合肥市,肥西县
1986,58321,117.06,31.96,49.0,安徽省,合肥市,肥西县
1987,58323,117.46,31.86,18.0,安徽省,合肥市,肥东县
1988,58326,117.83,31.58,30.0,安徽省,合肥市,巢湖市
1989,58327,117.28,31.27,45.0,安徽省,合肥市,庐江县
1990,58329,117.87,31.33,9.0,安徽省,芜湖市,无为县
1991,58330,118.08,31.75,26.0,安徽省,马鞍山市,含山县
1992,58331,118.37,31.73,22.0,安徽省,马鞍山市,和县
1993,58334,118.42,31.38,10.0,安徽省,芜湖市,鸠江区
1994,58335,118.57,31.55,60.0,安徽省,马鞍山市,当涂县
1995,58336,118.57,31.7,80.0,安徽省,马鞍山市,花山区
1996,58337,118.22,31.06,60.0,安徽省,芜湖市,繁昌县
1997,58338,118.6,31.12,40.0,安徽省,芜湖市,芜湖县
1998,58339,118.9,31.33,16.0,江苏省,南京市,高淳区
1999,58340,119.06,31.6,30.0,江苏省,南京市,溧水区
2000,58341,119.59,31.98,6.0,江苏省,镇江市,丹阳市
2001,58342,119.54,31.71,5.0,江苏省,常州市,金坛市
2002,58343,119.98,31.87,4.0,江苏省,常州市,新北区
2003,58344,119.2,31.96,36.0,江苏省,镇江市,句容市
2004,58345,119.5,31.43,5.0,江苏省,常州市,溧阳市
2005,58346,119.81,31.34,16.0,江苏省,无锡市,宜兴市
2006,58349,120.56,31.41,8.0,江苏省,苏州市,虎丘区
2007,58351,120.3,31.9,4.0,江苏省,无锡市,江阴市
2008,58352,120.77,31.65,4.0,江苏省,苏州市,常熟市
2009,58353,120.57,31.86,11.0,江苏省,苏州市,张家港市
2010,58354,120.35,31.62,3.0,江苏省,无锡市,锡山区
2011,58356,121.0,31.4,3.0,江苏省,苏州市,昆山市
2012,58358,120.43,31.08,16.0,江苏省,苏州市,吴中区
2013,58359,120.62,31.13,4.0,江苏省,苏州市,吴江区
2014,58360,121.2,31.92,3.0,江苏省,南通市,海门市
2015,58361,121.37,31.1,5.0,上海市,上海市,松江区
2016,58362,121.44,31.39,5.0,上海市,上海市,宝山区
2017,58365,121.2,31.38,6.0,上海市,上海市,嘉定区
2018,58366,121.49,31.67,4.0,上海市,上海市,崇明县
2019,58367,121.43,31.2,4.0,上海市,上海市,徐汇区
2020,58369,121.78,31.05,5.0,上海市,上海市,浦东新区
2021,58370,121.53,31.23,4.0,上海市,上海市,浦东新区
2022,58377,121.11,31.51,5.0,江苏省,苏州市,太仓市
2023,58401,115.4,30.75,123.0,湖北省,黄冈市,罗田县
2024,58402,115.67,30.73,123.0,湖北省,黄冈市,英山县
2025,58404,115.22,30.47,61.0,湖北省,黄冈市,浠水县
2026,58407,115.03,30.23,32.0,湖北省,黄石市,下陆区
2027,58408,115.47,30.24,71.0,湖北省,黄冈市,蕲春县
2028,58409,115.93,30.1,32.0,湖北省,黄冈市,黄梅县
2029,58414,116.32,30.43,105.0,安徽省,安庆市,太湖县
2030,58415,116.55,30.67,64.0,安徽省,安庆市,潜山县
2031,58416,116.82,30.75,35.0,安徽省,安庆市,怀宁县
2032,58417,116.12,30.17,109.0,安徽省,安庆市,宿松县
2033,58418,116.67,30.13,60.0,安徽省,安庆市,望江县
2034,58419,117.0,30.23,115.0,安徽省,池州市,东至县
2035,58420,117.23,30.72,58.0,安徽省,安庆市,枞阳县
2036,58421,117.86,30.61,77.0,安徽省,池州市,青阳县
2037,58423,117.78,30.48,647.0,安徽省,池州市,青阳县
2038,58424,116.97,30.62,62.0,安徽省,安庆市,怀宁县
2039,58426,118.13,30.3,193.0,安徽省,黄山市,黄山区
2040,58427,117.5,30.65,15.0,安徽省,池州市,贵池区
2041,58428,117.5,30.22,118.0,安徽省,池州市,石台县
2042,58429,117.85,30.98,11.0,安徽省,铜陵市,铜陵县
2043,58431,118.32,30.9,39.0,安徽省,芜湖市,南陵县
2044,58432,118.4,30.68,57.0,安徽省,宣城市,泾县
2045,58433,118.75,30.93,31.0,安徽省,宣城市,宣州区
2046,58435,118.53,30.3,220.0,安徽省,宣城市,旌德县
2047,58436,118.98,30.62,87.0,安徽省,宣城市,宁国市
2048,58437,118.15,30.13,1840.0,安徽省,黄山市,黄山区
2049,58438,118.58,30.08,191.0,安徽省,宣城市,绩溪县
2050,58441,119.42,30.87,43.0,安徽省,宣城市,广德县
2051,58442,119.18,31.17,16.0,安徽省,宣城市,郎溪县
2052,58443,119.89,31.02,25.0,浙江省,湖州市,长兴县
2053,58444,120.28,30.42,101.0,浙江省,杭州市,余杭区
2054,58446,119.7,30.63,72.0,浙江省,湖州市,安吉县
2055,58448,119.7,30.22,117.0,浙江省,杭州市,临安市
2056,58449,119.95,30.05,46.0,浙江省,杭州市,富阳市
2057,58450,120.05,30.87,7.0,浙江省,湖州市,吴兴区
2058,58451,120.93,30.83,2.0,浙江省,嘉兴市,嘉善县
2059,58452,120.77,30.73,4.0,浙江省,嘉兴市,南湖区
2060,58453,120.5,30.07,7.0,浙江省,绍兴市,绍兴县
2061,58454,119.98,30.53,102.0,浙江省,湖州市,德清县
2062,58455,120.48,30.47,5.0,浙江省,嘉兴市,海宁市
2063,58456,120.52,30.63,6.0,浙江省,嘉兴市,桐乡市
2064,58457,120.17,30.23,41.0,浙江省,杭州市,上城区
2065,58458,120.9,30.53,4.0,浙江省,嘉兴市,海盐县
2066,58459,120.28,30.18,96.0,浙江省,杭州市,萧山区
2067,58460,121.27,30.82,5.0,上海市,上海市,金山区
2068,58461,121.12,31.13,4.0,上海市,上海市,青浦区
2069,58462,121.18,31.02,8.0,上海市,上海市,松江区
2070,58463,121.5,30.88,4.0,上海市,上海市,奉贤区
2071,58464,121.12,30.65,4.0,浙江省,嘉兴市,平湖市
2072,58467,121.3,30.2,5.0,浙江省,宁波市,慈溪市
2073,58468,121.13,30.02,38.0,浙江省,宁波市,余姚市
2074,58469,121.92,30.33,31.0,浙江省,舟山市,岱山县
2075,58472,122.45,30.73,79.0,浙江省,舟山市,嵊泗县
2076,58474,122.05,30.63,54.0,浙江省,舟山市,嵊泗县
2077,58477,122.1,30.03,35.0,浙江省,舟山市,定海区
2078,58484,122.2,30.25,37.0,浙江省,舟山市,岱山县
2079,58500,115.22,29.9,57.0,湖北省,黄石市,阳新县
2080,58501,115.63,29.92,23.0,湖北省,黄冈市,武穴市
2081,58502,116.02,29.67,74.0,江西省,九江市,庐山区
2082,58503,115.67,29.7,41.0,江西省,九江市,瑞昌市
2083,58505,115.9,29.62,63.0,江西省,九江市,九江县
2084,58506,115.98,29.57,1164.0,江西省,九江市,庐山区
2085,58507,115.12,29.25,116.0,江西省,九江市,武宁县
2086,58508,115.73,29.35,80.0,江西省,九江市,德安县
2087,58509,115.82,29.05,36.0,江西省,九江市,永修县
2088,58510,116.22,29.68,35.0,江西省,九江市,湖口县
2089,58512,116.53,29.88,99.0,江西省,九江市,彭泽县
2090,58514,116.03,29.45,37.0,江西省,九江市,星子县
2091,58517,116.18,29.25,77.0,江西省,九江市,都昌县
2092,58519,117.0,28.0,0.0,江西省,抚州市,金溪县
2093,58520,117.69,29.87,191.0,安徽省,黄山市,祁门县
2094,58523,117.93,29.93,227.0,安徽省,黄山市,黟县
2095,58524,117.22,29.37,87.0,江西省,景德镇市,浮梁县
2096,58527,117.2,29.3,61.0,江西省,景德镇市,昌江区
2097,58529,117.85,29.28,171.0,江西省,上饶市,婺源县
2098,58530,118.43,29.87,168.0,安徽省,黄山市,歙县
2099,58531,118.28,29.72,142.0,安徽省,黄山市,屯溪区
2100,58534,118.18,29.79,170.0,安徽省,黄山市,休宁县
2101,58537,118.4,29.13,153.0,浙江省,衢州市,开化县
2102,58542,119.68,29.82,46.0,浙江省,杭州市,桐庐县
2103,58543,119.02,29.62,171.0,浙江省,杭州市,淳安县
2104,58544,119.27,29.48,88.0,浙江省,杭州市,建德市
2105,58546,119.88,29.47,115.0,浙江省,金华市,浦江县
2106,58547,119.19,29.04,66.0,浙江省,衢州市,龙游县
2107,58548,119.48,29.22,50.0,浙江省,金华市,兰溪市
2108,58549,119.65,29.12,62.0,浙江省,金华市,婺城区
2109,58550,120.25,29.7,39.0,浙江省,绍兴市,诸暨市
2110,58553,120.82,30.05,6.0,浙江省,绍兴市,上虞市
2111,58555,120.88,29.52,115.0,浙江省,绍兴市,新昌县
2112,58556,120.82,29.6,104.0,浙江省,绍兴市,嵊州市
2113,58557,120.08,29.33,90.0,浙江省,金华市,义乌市
2114,58558,120.22,29.27,89.0,浙江省,金华市,东阳市
2115,58559,120.97,29.15,107.0,浙江省,台州市,天台县
2116,58560,120.43,29.05,304.0,浙江省,金华市,磐安县
2117,58561,121.6,29.98,4.0,浙江省,宁波市,镇海区
2118,58562,121.5,29.8,6.0,浙江省,宁波市,鄞州区
2119,58563,121.83,29.88,5.0,浙江省,宁波市,北仑区
2120,58565,121.38,29.7,41.0,浙江省,宁波市,奉化市
2121,58566,121.92,29.38,4.0,浙江省,宁波市,象山县
2122,58567,121.43,29.32,39.0,浙江省,宁波市,宁海县
2123,58568,121.38,29.12,34.0,浙江省,台州市,三门县
2124,58569,121.95,29.2,128.0,浙江省,宁波市,象山县
2125,58570,122.3,29.95,85.0,浙江省,舟山市,普陀区
2126,58599,124.91,29.07,44.0,,,
2127,58600,115.37,28.85,78.0,江西省,宜春市,靖安县
2128,58601,115.35,28.72,80.0,江西省,宜春市,奉新县
2129,58602,115.55,28.85,40.0,江西省,南昌市,安义县
2130,58604,115.83,29.22,11.0,江西省,九江市,永修县
2131,58605,115.38,28.42,46.0,江西省,宜春市,高安市
2132,58606,115.9,28.58,47.0,江西省,南昌市,南昌县
2133,58607,115.97,28.57,31.0,江西省,南昌市,南昌县
2134,58608,115.55,27.98,66.0,江西省,宜春市,樟树市
2135,58609,115.82,28.23,27.0,江西省,宜春市,丰城市
2136,58612,116.68,28.68,21.0,江西省,上饶市,余干县
2137,58614,116.28,28.4,67.0,江西省,南昌市,进贤县
2138,58615,117.07,28.68,56.0,江西省,上饶市,万年县
2139,58616,116.82,28.2,47.0,江西省,鹰潭市,余江县
2140,58618,116.6,28.27,82.0,江西省,抚州市,东乡县
2141,58619,116.27,27.9,73.0,江西省,抚州市,临川区
2142,58620,117.1,29.02,51.0,江西省,景德镇市,乐平市
2143,58622,117.58,28.95,88.0,江西省,上饶市,德兴市
2144,58623,117.9,28.47,121.0,江西省,上饶市,上饶县
2145,58624,117.45,28.38,70.0,江西省,上饶市,弋阳县
2146,58625,117.6,28.42,79.0,江西省,上饶市,横峰县
2147,58626,117.23,28.32,60.0,江西省,鹰潭市,贵溪市
2148,58627,117.05,28.32,55.0,江西省,鹰潭市,贵溪市
2149,58629,117.7,28.28,100.0,江西省,上饶市,铅山县
2150,58631,118.5,28.9,137.0,浙江省,衢州市,常山县
2151,58632,118.6,28.72,126.0,浙江省,衢州市,江山市
2152,58633,118.9,29.0,82.0,浙江省,衢州市,衢江区
2153,58634,118.25,28.68,116.0,江西省,上饶市,玉山县
2154,58635,118.2,28.45,150.0,江西省,上饶市,广丰县
2155,58637,117.98,28.45,118.0,江西省,上饶市,信州区
2156,58639,118.02,28.85,237.0,江西省,上饶市,玉山县
2157,58642,119.8,28.88,105.0,浙江省,金华市,武义县
2158,58643,120.03,28.9,102.0,浙江省,金华市,永康市
2159,58644,119.28,28.6,237.0,浙江省,丽水市,遂昌县
2160,58645,119.48,28.43,152.0,浙江省,丽水市,松阳县
2161,58646,119.93,28.47,59.0,浙江省,丽水市,莲都区
2162,58647,119.13,28.08,222.0,浙江省,丽水市,龙泉市
2163,58648,119.63,28.0,246.0,浙江省,丽水市,景宁畲族自治县
2164,58652,120.72,28.87,83.0,浙江省,台州市,仙居县
2165,58654,120.08,28.67,184.0,浙江省,丽水市,缙云县
2166,58656,120.97,28.07,60.0,浙江省,温州市,乐清市
2167,58657,120.28,28.13,57.0,浙江省,丽水市,青田县
2168,58658,120.68,28.15,34.0,浙江省,温州市,永嘉县
2169,58659,120.65,28.03,28.0,浙江省,温州市,鹿城区
2170,58660,121.2,28.87,6.0,浙江省,台州市,临海市
2171,58664,121.37,28.37,35.0,浙江省,台州市,温岭市
2172,58665,121.42,28.62,4.0,浙江省,台州市,椒江区
2173,58666,121.9,28.45,86.0,浙江省,台州市,椒江区
2174,58667,121.27,28.08,95.0,浙江省,台州市,玉环县
2175,58693,115.83,28.72,40.0,江西省,南昌市,青山湖区
2176,58696,125.01,28.51,43.0,,,
2177,58701,115.4,27.75,46.0,江西省,吉安市,新干县
2178,58704,115.35,27.58,104.0,江西省,吉安市,峡江县
2179,58705,115.42,27.33,85.0,江西省,吉安市,永丰县
2180,58706,115.83,27.42,181.0,江西省,抚州市,乐安县
2181,58707,115.13,27.22,66.0,江西省,吉安市,吉水县
2182,58710,116.05,27.77,78.0,江西省,抚州市,崇仁县
2183,58712,116.78,27.92,130.0,江西省,抚州市,金溪县
2184,58713,117.07,27.72,225.0,江西省,抚州市,资溪县
2185,58714,116.23,27.55,120.0,江西省,抚州市,宜黄县
2186,58715,116.65,27.58,80.0,江西省,抚州市,南城县
2187,58718,116.53,27.22,111.0,江西省,抚州市,南丰县
2188,58719,116.92,27.3,131.0,江西省,抚州市,黎川县
2189,58724,117.32,27.53,268.0,福建省,南平市,光泽县
2190,58725,117.47,27.33,218.0,福建省,南平市,邵武市
2191,58726,117.84,27.96,1400.0,江西省,上饶市,铅山县
2192,58730,118.03,27.77,222.0,福建省,南平市,武夷山市
2193,58731,118.53,27.92,276.0,福建省,南平市,浦城县
2194,58734,118.12,27.33,196.0,福建省,南平市,建阳市
2195,58735,118.75,27.52,260.0,福建省,南平市,松溪县
2196,58736,118.82,27.38,262.0,福建省,南平市,政和县
2197,58737,118.32,27.05,154.0,福建省,南平市,建瓯市
2198,58742,119.57,28.1,163.0,浙江省,丽水市,云和县
2199,58744,119.5,27.45,845.0,福建省,宁德市,寿宁县
2200,58745,119.08,27.62,400.0,浙江省,丽水市,庆元县
2201,58746,119.7,27.55,538.0,浙江省,温州市,泰顺县
2202,58747,119.35,27.15,899.0,福建省,宁德市,周宁县
2203,58748,119.65,27.1,50.0,福建省,宁德市,福安市
2204,58749,119.88,27.23,684.0,福建省,宁德市,柘荣县
2205,58750,120.08,27.78,105.0,浙江省,温州市,文成县
2206,58751,120.57,27.67,254.0,浙江省,温州市,平阳县
2207,58752,120.65,27.79,37.0,浙江省,温州市,瑞安市
2208,58754,120.2,27.33,36.0,福建省,宁德市,福鼎市
2209,58755,120.39,27.5,118.0,浙江省,温州市,苍南县
2210,58760,121.15,27.83,68.0,浙江省,温州市,洞头县
2211,58804,115.35,26.28,184.0,江西省,赣州市,兴国县
2212,58806,116.02,26.48,209.0,江西省,赣州市,宁都县
2213,58813,116.3,26.83,166.0,江西省,抚州市,广昌县
2214,58814,116.35,26.35,280.0,江西省,赣州市,石城县
2215,58818,116.63,26.23,358.0,福建省,三明市,宁化县
2216,58819,116.79,26.19,363.0,福建省,三明市,清流县
2217,58820,117.17,26.9,342.0,福建省,三明市,泰宁县
2218,58821,117.49,26.71,286.0,福建省,三明市,将乐县
2219,58822,116.85,26.83,342.0,福建省,三明市,建宁县
2220,58823,117.8,26.8,175.0,福建省,南平市,顺昌县
2221,58824,117.15,26.4,357.0,福建省,三明市,明溪县
2222,58826,117.8,26.4,120.0,福建省,三明市,沙县
2223,58828,117.62,26.27,208.0,福建省,三明市,梅列区
2224,58834,118.17,26.63,152.0,福建省,南平市,延平区
2225,58836,118.73,26.58,361.0,福建省,宁德市,古田县
2226,58837,118.15,26.15,204.0,福建省,三明市,尤溪县
2227,58839,118.86,26.22,149.0,福建省,福州市,闽清县
2228,58843,120.02,26.88,56.0,福建省,宁德市,霞浦县
2229,58844,119.15,26.15,57.0,福建省,福州市,闽侯县
2230,58845,119.55,26.5,78.0,福建省,福州市,罗源县
2231,58846,119.52,26.67,32.0,福建省,宁德市,蕉城区
2232,58847,119.28,26.08,84.0,福建省,福州市,鼓楼区
2233,58848,119.55,26.2,13.0,福建省,福州市,连江县
2234,58850,120.23,26.92,92.0,福建省,宁德市,霞浦县
2235,58903,116.02,25.92,289.0,江西省,赣州市,瑞金市
2236,58905,115.42,25.97,133.0,江西省,赣州市,于都县
2237,58906,115.8,25.6,167.0,江西省,赣州市,会昌县
2238,58907,115.4,25.15,305.0,江西省,赣州市,安远县
2239,58911,116.37,25.85,310.0,福建省,龙岩市,长汀县
2240,58912,116.73,25.72,404.0,福建省,龙岩市,连城县
2241,58917,116.1,25.08,307.0,福建省,龙岩市,武平县
2242,58918,116.42,25.05,198.0,福建省,龙岩市,上杭县
2243,58921,117.37,25.95,257.0,福建省,三明市,永安市
2244,58923,117.83,25.7,400.0,福建省,三明市,大田县
2245,58926,117.42,25.3,205.0,福建省,龙岩市,漳平市
2246,58927,117.02,25.05,376.0,福建省,龙岩市,新罗区
2247,58928,117.53,25.02,166.0,福建省,漳州市,华安县
2248,58929,118.2,25.07,130.0,福建省,泉州市,安溪县
2249,58931,118.1,25.72,1653.0,福建省,泉州市,德化县
2250,58932,118.93,25.87,85.0,福建省,福州市,永泰县
2251,58933,118.98,26.92,869.0,福建省,宁德市,屏南县
2252,58934,118.27,25.33,183.0,福建省,泉州市,永春县
2253,58935,118.23,25.52,645.0,福建省,泉州市,德化县
2254,58936,118.7,25.37,77.0,福建省,莆田市,仙游县
2255,58938,119.11,25.27,65.0,福建省,莆田市,秀屿区
2256,58940,119.33,26.08,25.0,福建省,福州市,晋安区
2257,58941,119.5,25.97,25.0,福建省,福州市,长乐市
2258,58942,119.38,25.67,75.0,福建省,福州市,福清市
2259,58944,119.78,25.52,32.0,福建省,福州市,平潭县
2260,58946,119.0,25.45,81.0,福建省,莆田市,城厢区
2261,58958,119.47,25.25,33.0,福建省,莆田市,秀屿区
2262,59001,105.33,24.78,672.0,广西壮族自治区,百色市,隆林各族自治县
2263,59004,105.08,24.5,827.0,广西壮族自治区,百色市,西林县
2264,59007,105.05,24.05,1249.0,云南省,文山壮族苗族自治州,广南县
2265,59012,106.55,24.78,972.0,广西壮族自治区,百色市,乐业县
2266,59015,106.53,24.38,544.0,广西壮族自治区,百色市,凌云县
2267,59017,106.27,24.27,278.0,广西壮族自治区,百色市,田林县
2268,59021,107.03,24.55,509.0,广西壮族自治区,河池市,凤山县
2269,59022,107.55,24.98,749.0,广西壮族自治区,河池市,南丹县
2270,59023,108.03,24.7,260.0,广西壮族自治区,河池市,金城江区
2271,59025,107.38,24.53,248.0,广西壮族自治区,河池市,东兰县
2272,59027,107.25,24.13,254.0,广西壮族自治区,河池市,巴马瑶族自治县
2273,59031,108.27,24.82,342.0,广西壮族自治区,河池市,环江毛南族自治县
2274,59033,108.87,24.78,363.0,广西壮族自治区,河池市,罗城仫佬族自治县
2275,59034,108.65,24.48,185.0,广西壮族自治区,河池市,宜州市
2276,59037,108.1,23.93,170.0,广西壮族自治区,河池市,都安瑶族自治县
2277,59038,108.65,24.02,147.0,广西壮族自治区,来宾市,忻城县
2278,59041,109.25,24.65,218.0,广西壮族自治区,柳州市,柳城县
2279,59044,109.38,24.47,97.0,广西壮族自治区,柳州市,柳北区
2280,59045,109.78,24.5,131.0,广西壮族自治区,柳州市,鹿寨县
2281,59046,109.47,24.37,306.0,广西壮族自治区,柳州市,城中区
2282,59047,109.28,24.23,133.0,广西壮族自治区,柳州市,柳江县
2283,59051,110.5,24.77,136.0,广西壮族自治区,桂林市,阳朔县
2284,59052,110.82,24.83,169.0,广西壮族自治区,桂林市,恭城瑶族自治县
